도로명,지번주소,위도,경도
"서울특별시 종로구 삼일대로 428, 낙원상가 5층 (낙원동)",서울특별시 종로구 낙원동 288번지 낙원상가,37.5722238,126.9876399
"서울특별시 종로구 삼일대로 428, 낙원상가 4층 (낙원동)",서울특별시 종로구 낙원동 288번지 낙원상가,37.5722238,126.9876399
"서울특별시 강서구 양천로 559, 가양이마트 (가양동)",서울특별시 강서구 가양동 449번지 19호 가양이마트,37.5595594,126.8596073
"서울특별시 관악구 관악로 217, 동진빌딩 (봉천동)",서울특별시 관악구 봉천동 32번지 8호 동진빌딩,37.4680011,126.9635703
"서울특별시 관악구 관악로 217, 동진빌딩 (봉천동)",서울특별시 관악구 봉천동 32번지 8호 동진빌딩,37.4680011,126.9635703
"서울특별시 관악구 남부순환로 1836, 호산빌딩 (봉천동)",서울특별시 관악구 봉천동 853번지 1호 호산빌딩,37.4805019,126.9537464
"서울특별시 종로구 창경궁로 120, 종로플레이스 4층 (인의동)",서울특별시 종로구 인의동 28번지 2호 종로플레이스,37.5733224,126.998013
"서울특별시 은평구 수색로 300 (수색동, DMC롯데캐슬더퍼스트)",서울특별시 은평구 수색동 417 DMC롯데캐슬더퍼스트,37.5850785,126.8903785
서울특별시 중구 후암로 98,서울특별시 중구 남대문로5가 631 LG서울역빌딩,37.5538894,126.9748249
서울특별시 중구 후암로 98,서울특별시 중구 남대문로5가 631 LG서울역빌딩,37.5538894,126.9748249
서울특별시 중구 후암로 98,서울특별시 중구 남대문로5가 631 LG서울역빌딩,37.5538894,126.9748249
서울특별시 성동구 금호로 140 (금호동1가),서울특별시 성동구 금호동1가 280,37.5546346,127.0227671
"서울특별시 마포구 토정로31길 24 관리사무소 (용강동, e편한세상 마포3차)",서울특별시 마포구 용강동 508 e편한세상 마포3차 관리사무소,37.5415622,126.9437184
"서울특별시 마포구 토정로31길 24 관리사무소 (용강동, e편한세상 마포3차)",서울특별시 마포구 용강동 508 e편한세상 마포3차 관리사무소,37.5415622,126.9437184
"서울특별시 관악구 청룡16길 43 (봉천동, e편한세상서울대입구 2단지)",서울특별시 관악구 봉천동 1555번지 1호 e편한세상서울대입구 2단지,37.4768718,126.9435052
"서울특별시 관악구 청룡16길 43 (봉천동, e편한세상서울대입구 2단지)",서울특별시 관악구 봉천동 1555번지 1호 e편한세상서울대입구 2단지,37.4768718,126.9435052
"서울특별시 송파구 오금로 551, 관리동 (거여동)",서울특별시 송파구 거여동 234,37.4931823,127.1503679
"서울특별시 강서구 양천로61길 101, 가양레포츠센터 (가양동)",서울특별시 강서구 가양동 1493,37.5599659,126.8655669
서울특별시 강서구 허준로 23,서울특별시 강서구 가양동 1460 한강아파트,37.571401,126.8449982
서울특별시 영등포구 63로 10 여의도성모병원 마리아관 1층 뇌건강센터 (여의도동),서울특별시 영등포구 여의도동 62 여의도성모병원 여의도성모병원 마리아관 1층 뇌건강센터,37.5180934,126.9365809
서울특별시 강서구 양천로 507 제1경비실,서울특별시 강서구 가양동 448-1 강나루현대아파트 제1경비실,37.5607658,126.8569767
서울특별시 강남구 헌릉로590길 60 (세곡동),서울특별시 강남구 세곡동 521 강남구립 행복요양병원 (세곡동),37.4611435,127.1033649
"서울특별시 강남구 개포로28길 47, 구민체육관 (개포동)",서울특별시 강남구 개포동 1271 구민체육관,37.4777151,127.0523362
서울특별시 강남구 선릉로 668 (삼성동),서울특별시 강남구 선릉로 668 .,37.5163931,127.0422835
"서울특별시 강남구 선릉로 668, 강남구보건소,강남구립국제교육원 (삼성동)","서울특별시 강남구 삼성동 8 강남구보건소,강남구립국제교육원",37.5163307,127.0421485
"서울특별시 강남구 선릉로108길 27, 강남구치매지원센터 4층 (삼성동)",서울특별시 강남구 삼성동 113-26 강남구치매지원센터,37.5102494,127.046459
"서울특별시 관악구 신림로64길 11, 성재빌딩 (신림동)",서울특별시 관악구 신림동 1421번지 55호 성재빌딩,37.4855918,126.9320567
"서울특별시 강남구 개포로109길 5 (개포동, 대치아파트)",서울특별시 강남구 개포동 12 대치아파트,37.4941776,127.07521
서울특별시 강동구 성안로31마길 1 (천호동),서울특별시 강동구 천호동 174-1 천호3동제2공영주차장,37.5405362,127.1340931
"서울특별시 강동구 천중로17길 42-16, 천호2동자치회관 (천호동)",서울특별시 강동구 천호동 302-4 천호2동자치회관,37.5462363,127.1318121
"서울특별시 강동구 성내로 45, 강동구보건소 (성내동)",서울특별시 강동구 성내동 541번지 2호 강동구보건소,37.5294608,127.1250738
"서울특별시 강동구 올림픽로 지하 550, 강동구청역 (성내동)",서울특별시 강동구 성내동 319번지 강동구청역,37.5306697,127.1205768
서울특별시 강동구 양재대로116길 57,서울특별시 강동구 길동 362 강동도서관,37.538271,127.144496
"서울특별시 강동구 고덕로 131 (암사동, 강동 롯데캐슬퍼스트아파트)",서울특별시 강동구 암사동 414-2 강동 롯데캐슬퍼스트아파트,37.5564438,127.14205
서울특별시 강동구 고덕로 131,서울특별시 강동구 암사동 414-2 강동 롯데캐슬퍼스트아파트,37.5564438,127.14205
"서울특별시 강동구 고덕로 131 (암사동, 강동 롯데캐슬퍼스트아파트)",서울특별시 강동구 암사동 414-2 강동 롯데캐슬퍼스트아파트,37.5564438,127.14205
서울특별시 강동구 천호대로 지하 1097,서울특별시 강동구 천호동 447 강동역,37.5357824,127.1341641
"서울특별시 강동구 상일로12길 56, 강명중학교 (강일동)",서울특별시 강동구 강일동 737번지 강명중학교,37.5555058,127.1751111
"서울특별시 강서구 공항대로2가길 5, 공항동 통합복지센터 2,3층 (공항동)",서울특별시 강서구 공항동 51-42 공항동 통합복지센터,37.5603723,126.8089612
"서울특별시 강서구 금낭화로 162, 1층 (방화동, 방화메이빌아파트)",서울특별시 강서구 방화동 902번지 방화메이빌아파트,37.5795735,126.8140196
"서울특별시 강서구 공항대로 561, 강서보건소 (염창동)",서울특별시 강서구 염창동 275-12 강서보건소,37.5496444,126.8683359
"서울특별시 강서구 등촌로13자길 20, 공중화장실 (화곡동)",서울특별시 강서구 화곡동 산 22-32 강서다목적체육관,37.5395726,126.8559534
서울특별시 강서구 우현로 67,서울특별시 강서구 화곡동 1165 강서힐스테이트,37.5467373,126.8400431
"서울특별시 강동구 아리수로98길 40, 서울강일고등학교 (강일동)",서울특별시 강동구 강일동 685번지 1호 서울강일고등학교,37.5649879,127.1772809
서울특별시 강동구 고덕로97길 20,서울특별시 강동구 강일동 695 강일리버파크10단지아파트,37.5599731,127.1807674
서울특별시 강동구 아리수로97길 19,서울특별시 강동구 강일동 673 강일리버파크4단지아파트,37.5673064,127.1763018
서울특별시 강동구 아리수로98길 25,서울특별시 강동구 강일동 686 강일리버파크7단지아파트,37.5647734,127.1789887
"서울특별시 구로구 경인로 302 (개봉동, 센트레빌 레우스 1단지)",서울특별시 구로구 개봉동 497 센트레빌 레우스 1단지,37.4961892,126.854277
"서울특별시 구로구 경인로 302 (개봉동, 센트레빌 레우스 1단지)",서울특별시 구로구 개봉동 497 센트레빌 레우스 1단지,37.4961892,126.854277
서울특별시 종로구 사직로 161,서울특별시 종로구 세종로 1-1,37.5808498,126.9768457
"서울특별시 송파구 송이로 123, 국립경찰병원 (가락동)",서울특별시 송파구 가락동 58 국립경찰병원,37.4962558,127.1234856
"서울특별시 송파구 송이로 123, 국립경찰병원 (가락동)",서울특별시 송파구 가락동 58 국립경찰병원,37.4962558,127.1234856
"서울특별시 송파구 송이로 123, 국립경찰병원 (가락동)",서울특별시 송파구 가락동 58 국립경찰병원,37.4962558,127.1234856
"서울특별시 송파구 송이로 123, 국립경찰병원 (가락동)",서울특별시 송파구 가락동 58 국립경찰병원,37.4962558,127.1234856
"서울특별시 동대문구 경희대로 23, 경희의료원 (회기동)",서울특별시 동대문구 회기동 1번지 5호 경희의료원,37.5964932,127.0525006
"서울특별시 강동구 고덕로 333 (고덕동, 고덕그라시움아파트)",서울특별시 강동구 고덕동 212번지 고덕그라시움아파트,37.5578047,127.1670496
"서울특별시 강동구 고덕로 333 (고덕동, 고덕그라시움아파트)",서울특별시 강동구 고덕동 212번지 고덕그라시움아파트,37.5578047,127.1670496
"서울특별시 강동구 고덕로 333 (고덕동, 고덕그라시움아파트)",서울특별시 강동구 고덕동 212번지 고덕그라시움아파트,37.5578047,127.1670496
"서울특별시 강동구 고덕로 333 (고덕동, 고덕그라시움아파트)",서울특별시 강동구 고덕동 212번지 고덕그라시움아파트,37.5578047,127.1670496
"서울특별시 강동구 고덕로 333 (고덕동, 고덕그라시움아파트)",서울특별시 강동구 고덕동 212번지 고덕그라시움아파트,37.5578047,127.1670496
"서울특별시 강동구 상암로79길 88 (상일동, 고덕롯데캐슬베네루체아파트)",서울특별시 강동구 상일동 187번지 고덕롯데캐슬베네루체아파트,37.5493115,127.1678238
"서울특별시 강동구 상일로 74 (상일동, 고덕리엔파크3단지아파트)",서울특별시 강동구 상일동 490 고덕리엔파크3단지아파트,37.5524229,127.1753272
"서울특별시 강동구 고덕로80길 99 (상일동, 고덕센트럴 IPARK)",서울특별시 강동구 상일동 513 고덕센트럴 IPARK,37.5520554,127.1667644
"서울특별시 강동구 고덕로80길 134 (상일동, 고덕숲아이파크)",서울특별시 강동구 상일동 515 고덕숲아이파크,37.5514939,127.1613221
"서울특별시 강동구 고덕로80길 134 (상일동, 고덕숲아이파크)",서울특별시 강동구 상일동 515 고덕숲아이파크,37.5514939,127.1613221
"서울특별시 강동구 고덕로80길 134 (상일동, 고덕숲아이파크)",서울특별시 강동구 상일동 515 고덕숲아이파크,37.5514939,127.1613221
"서울특별시 강동구 고덕로80길 134, 고덕숲아이파크 (상일동, 고덕숲아이파크)",서울특별시 강동구 상일동 515 고덕숲아이파크,37.5514939,127.1613221
서울특별시 강동구 고덕로 지하 253,서울특별시 강동구 고덕동 310 고덕역,37.5556292,127.1538847
"서울특별시 강동구 상일로 55, 고덕자이아파트 (상일동)",서울특별시 강동구 상일동 124,37.5522916,127.1706498
"서울특별시 강동구 천호대로 1151, 고은빛여성병원 (길동)",서울특별시 강동구 길동 426 고은빛여성병원,37.5341605,127.1393442
"서울특별시 강서구 하늘길 지하 77, 김포공항역 지하1층 (방화동)",서울특별시 강서구 방화동 886 김포공항역,37.5650643,126.803002
서울특별시 강서구 마곡중앙로 지하 135 마곡나루역 (마곡동),서울특별시 강서구 마곡동 373-5 마곡나루역 마곡나루역,37.5658213,126.8276344
서울특별시 강서구 마곡중앙로 지하 135 마곡나루역 (마곡동),서울특별시 강서구 마곡동 373-5 마곡나루역 마곡나루역,37.5658213,126.8276344
"서울특별시 마포구 성암로 지하 184, 공항철도 디지털미디어시티역 (상암동)",서울특별시 마포구 상암동 1140 공항철도 디지털미디어시티역,37.5768708,126.8991882
"서울특별시 마포구 성암로 지하 184, 공항철도 디지털미디어시티역 (상암동)",서울특별시 마포구 상암동 1140 공항철도 디지털미디어시티역,37.5768708,126.8991882
서울특별시 마포구 성암로 지하 184 공항철도 DMC역 (상암동),서울특별시 마포구 상암동 1140 공항철도 디지털미디어시티역 공항철도 DMC역,37.5768708,126.8991882
"서울특별시 마포구 성암로 지하 184, 공항철도 디지털미디어시티역 (상암동)",서울특별시 마포구 상암동 1140 공항철도 디지털미디어시티역,37.5768708,126.8991882
서울특별시 마포구 마포대로 지하 92 공항철도 공덕역 (도화동),서울특별시 마포구 도화동 25-13 공덕역 공항철도 공덕역,37.5430224,126.9511933
서울특별시 마포구 마포대로 지하 92 공항철도 공덕역 (도화동),서울특별시 마포구 도화동 25-13 공덕역 공항철도 공덕역,37.5430224,126.9511933
서울특별시 마포구 마포대로 지하 92 공항철도 공덕역 (도화동),서울특별시 마포구 도화동 25-13 공덕역 공항철도 공덕역,37.5430224,126.9511933
서울특별시 마포구 양화로 지하 188 공항철도 홍대입구역 (동교동),서울특별시 마포구 동교동 190-1 홍대입구역 공항철도 홍대입구역,37.5595395,126.9247978
서울특별시 관악구 봉천로 279-7 1층,서울특별시 관악구 봉천동 661 관악구보건지소 1층,37.488157,126.9327059
서울특별시 관악구 남부순환로 1914,서울특별시 관악구 봉천동 1660-4 관악구장애인종합복지관,37.477441,126.9618621
서울특별시 관악구 남부순환로 1914,서울특별시 관악구 봉천동 1660-4 관악구장애인종합복지관,37.477441,126.9618621
서울특별시 관악구 남부순환로 1914,서울특별시 관악구 봉천동 1660-4 관악구장애인종합복지관,37.477441,126.9618621
"서울특별시 관악구 난곡로 30 1단지,2단지 (신림동, 관악산휴먼시아아파트)","서울특별시 관악구 신림동 1735-1 관악산휴먼시아아파트 1단지,2단지",37.4616692,126.9212183
서울특별시 관악구 관악로 1 관악서울대학교치과병원,서울특별시 관악구 신림동 산56-1 서울대학교 관악서울대학교치과병원,37.4533695,126.9571696
"서울특별시 관악구 문성로 187, 관악세무서 (신림동)",서울특별시 관악구 신림동 438번지 2호 관악세무서,37.4793295,126.9242923
서울특별시 광진구 뚝섬로64길 45 광진중학교 (자양동),서울특별시 광진구 자양동 693 광진중학교 광진중학교,37.5317912,127.0896296
서울특별시 구로구 안양천로 552 (고척동),서울특별시 구로구 고척동 66-11,37.4971381,126.8681934
"서울특별시 영등포구 경인로 778, 구로세무서 (문래동1가)",서울특별시 영등포구 문래동1가 23번지 1호 구로세무서,37.5138489,126.8996407
서울특별시 영등포구 도림로 482 구립영등포노인케어센터,서울특별시 영등포구 문래동3가 76-2 영등포노인종합복지관/영등포노인케어센터 구립영등포노인케어센터,37.5168612,126.8903714
"서울특별시 광진구 광나루로56길 32 (구의동, 구의현대2단지아파트)",서울특별시 광진구 구의동 611번지 구의현대2단지아파트,37.538632,127.0958857
"서울특별시 광진구 광나루로56길 32 (구의동, 구의현대2단지아파트)",서울특별시 광진구 구의동 611번지 구의현대2단지아파트,37.538632,127.0958857
"서울특별시 광진구 광나루로56길 32 (구의동, 구의현대2단지아파트)",서울특별시 광진구 구의동 611번지 구의현대2단지아파트,37.538632,127.0958857
"서울특별시 광진구 광나루로56길 32 (구의동, 구의현대2단지아파트)",서울특별시 광진구 구의동 611번지 구의현대2단지아파트,37.538632,127.0958857
"서울특별시 광진구 광나루로56길 32 (구의동, 구의현대2단지아파트)",서울특별시 광진구 구의동 611번지 구의현대2단지아파트,37.538632,127.0958857
서울특별시 광진구 광나루로56길 32 .,서울특별시 광진구 구의동 611 구의현대2단지아파트 .,37.538632,127.0958857
"서울특별시 광진구 광나루로56길 32 (구의동, 구의현대2단지아파트)",서울특별시 광진구 구의동 611번지 구의현대2단지아파트,37.538632,127.0958857
"서울특별시 광진구 광나루로56길 32 (구의동, 구의현대2단지아파트)",서울특별시 광진구 구의동 611번지 구의현대2단지아파트,37.538632,127.0958857
"서울특별시 광진구 광나루로56길 32 (구의동, 구의현대2단지아파트)",서울특별시 광진구 구의동 611번지 구의현대2단지아파트,37.538632,127.0958857
"서울특별시 광진구 광나루로56길 32 (구의동, 구의현대2단지아파트)",서울특별시 광진구 구의동 611번지 구의현대2단지아파트,37.538632,127.0958857
서울특별시 광진구 광나루로56길 32 .,서울특별시 광진구 구의동 611 구의현대2단지아파트 .,37.538632,127.0958857
"서울특별시 광진구 광나루로56길 32 (구의동, 구의현대2단지아파트)",서울특별시 광진구 구의동 611번지 구의현대2단지아파트,37.538632,127.0958857
서울특별시 광진구 광나루로56길 32 213동 12라인 1층,서울특별시 광진구 구의동 611 구의현대2단지아파트 213동 12라인 1층,37.538632,127.0958857
"서울특별시 광진구 광나루로56길 32 (구의동, 구의현대2단지아파트)",서울특별시 광진구 구의동 611번지 구의현대2단지아파트,37.538632,127.0958857
서울특별시 영등포구 여의대방로49길 3 (신길동),서울특별시 영등포구 신길동 1177,37.5095253,126.92365
서울특별시 영등포구 여의대방로43라길 17 (신길동),서울특별시 영등포구 신길동 123-1,37.5092594,126.9191014
서울특별시 강북구 삼각산로28길 58 (수유동),서울특별시 강북구 수유동 24번지 4호,37.6386962,127.0189819
"서울특별시 광진구 용마산로 127, 국립정신건강센터 (중곡동)",서울특별시 광진구 중곡동 30번지 1호 국립정신건강센터,37.5650179,127.0858061
"서울특별시 중구 을지로 245, 국립중앙의료원 (을지로6가)",서울특별시 중구 을지로6가 18번지 79호 국립중앙의료원,37.5692615,127.0098288
"서울특별시 강남구 강남대로 390, 미진프라자 5층 (역삼동)",서울특별시 강남구 역삼동 825번지 미진프라자,37.4978502,127.0286473
서울특별시 영등포구 의사당대로 1,서울특별시 영등포구 여의도동 1 국회,37.5310588,126.9153837
서울특별시 영등포구 의사당대로 1,서울특별시 영등포구 여의도동 1 국회,37.5310588,126.9153837
서울특별시 영등포구 의사당대로 1,서울특별시 영등포구 여의도동 1 국회,37.5310588,126.9153837
서울특별시 영등포구 의사당대로 1,서울특별시 영등포구 여의도동 1 국회,37.5310588,126.9153837
서울특별시 영등포구 의사당대로 1,서울특별시 영등포구 여의도동 1 국회,37.5310588,126.9153837
"서울특별시 영등포구 의사당대로 1, 국회 (여의도동)",서울특별시 영등포구 여의도동 1 국회,37.5310588,126.9153837
서울특별시 영등포구 의사당대로 1,서울특별시 영등포구 여의도동 1 국회,37.5310588,126.9153837
서울특별시 영등포구 의사당대로 1,서울특별시 영등포구 여의도동 1 국회,37.5310588,126.9153837
서울특별시 영등포구 의사당대로 1,서울특별시 영등포구 여의도동 1 국회,37.5310588,126.9153837
서울특별시 강동구 양재대로 지하 1572,서울특별시 강동구 명일동 345-12 굽은다리역,37.5460517,127.1432073
"서울특별시 금천구 시흥대로12길 10-5, 남부도로사업소 청사 (시흥동)",서울특별시 금천구 시흥동 961-5 남부도로사업소 청사,37.4387339,126.9044624
"서울특별시 금천구 시흥대로73길 70, 금천구청종합청사 (시흥동)",서울특별시 금천구 시흥동 1020 금천구청종합청사,37.4568182,126.8954093
"서울특별시 관악구 남부순환로 1369, 관악농협농산물백화점 5층 (신림동)",서울특별시 관악구 신림동 1668번지 관악농협농산물백화점,37.480103,126.9028306
"서울특별시 성동구 동호로 100 (금호동3가, 두산아파트)",서울특별시 성동구 금호동3가 1331 두산아파트,37.5499707,127.0164461
"서울특별시 성동구 동호로 100 (금호동3가, 두산아파트)",서울특별시 성동구 금호동3가 1331 두산아파트,37.5499707,127.0164461
"서울특별시 성동구 동호로 100 (금호동3가, 두산아파트)",서울특별시 성동구 금호동3가 1331 두산아파트,37.5499707,127.0164461
"서울특별시 성동구 동호로 100 (금호동3가, 두산아파트)",서울특별시 성동구 금호동3가 1331 두산아파트,37.5499707,127.0164461
"서울특별시 성동구 동호로 100 (금호동3가, 두산아파트)",서울특별시 성동구 금호동3가 1331 두산아파트,37.5499707,127.0164461
"서울특별시 성동구 동호로 100 (금호동3가, 두산아파트)",서울특별시 성동구 금호동3가 1331 두산아파트,37.5499707,127.0164461
"서울특별시 성동구 동호로 100 (금호동3가, 두산아파트)",서울특별시 성동구 금호동3가 1331 두산아파트,37.5499707,127.0164461
"서울특별시 성동구 동호로 100 (금호동3가, 두산아파트)",서울특별시 성동구 금호동3가 1331 두산아파트,37.5499707,127.0164461
"서울특별시 성동구 동호로 100 (금호동3가, 두산아파트)",서울특별시 성동구 금호동3가 1331 두산아파트,37.5499707,127.0164461
"서울특별시 성동구 동호로 100 (금호동3가, 두산아파트)",서울특별시 성동구 금호동3가 1331 두산아파트,37.5499707,127.0164461
"서울특별시 성동구 동호로 100 (금호동3가, 두산아파트)",서울특별시 성동구 금호동3가 1331 두산아파트,37.5499707,127.0164461
"서울특별시 성동구 동호로 100 (금호동3가, 두산아파트)",서울특별시 성동구 금호동3가 1331 두산아파트,37.5499707,127.0164461
"서울특별시 성동구 동호로 100 (금호동3가, 두산아파트)",서울특별시 성동구 금호동3가 1331 두산아파트,37.5499707,127.0164461
"서울특별시 성동구 독서당로 343 (금호동1가, 금호 삼성래미안 아파트)",서울특별시 성동구 금호동1가 1500 금호 삼성래미안 아파트,37.5491128,127.0273709
"서울특별시 성북구 돌곶이로 220 (장위동, 꿈의숲코오롱하늘채아파트)",서울특별시 성북구 장위동 319 꿈의숲코오롱하늘채아파트,37.6196813,127.0461714
"서울특별시 강동구 올림픽로 658, 오복빌딩 6층 (천호동)",서울특별시 강동구 천호동 428번지 1호 오복빌딩,37.5399829,127.1243977
"서울특별시 강남구 봉은사로 130, 노보텔 앰배서더 강남 서울 (역삼동)",서울특별시 강남구 역삼동 603 노보텔 앰배서더 강남 서울,37.5053062,127.0288859
서울특별시 노원구 노원로30길 73 (상계동),서울특별시 노원구 상계동 181번지 14호,37.655486,127.070878
서울특별시 서초구 반포대로 157 대검찰청,서울특별시 서초구 서초동 1730-1 대검찰청 대검찰청,37.4936258,127.0047794
서울특별시 서초구 반포대로 157 대검찰청,서울특별시 서초구 서초동 1730-1 대검찰청 대검찰청,37.4936258,127.0047794
서울특별시 서초구 반포대로 157 대검찰청,서울특별시 서초구 서초동 1730-1 대검찰청 대검찰청,37.4936258,127.0047794
"서울특별시 동대문구 안암로 6, 대광중고등학교 (신설동)",서울특별시 동대문구 신설동 53번지 3호 대광중고등학교,37.577908,127.0244289
"서울특별시 종로구 계동길 84-10, 대동세무고등학교 (계동)",서울특별시 종로구 계동 35 대동세무고등학교,37.5819225,126.9878909
"서울특별시 종로구 계동길 84-10, 대동세무고등학교 (계동)",서울특별시 종로구 계동 35번지 대동세무고등학교,37.5819225,126.9878909
서울특별시 노원구 상계로26길 20,서울특별시 노원구 상계로26길 20,37.6572484,127.0711849
서울특별시 구로구 디지털로34길 27,서울특별시 구로구 구로동 182-4 대륭포스트타워3차,37.4854177,126.8981253
"서울특별시 성동구 고산자로 160 (응봉동, 대림 강변 타운)",서울특별시 성동구 응봉동 15번지 대림 강변 타운,37.5534434,127.0357572
"서울특별시 영등포구 시흥대로 657, 대림성모병원 (대림동)",서울특별시 영등포구 대림동 978-13 대림성모병원,37.4905792,126.9070901
"서울특별시 동작구 상도로 34, 산맥빌딩 4층 (대방동)",서울특별시 동작구 대방동 403-11 산맥빌딩,37.4995916,126.9242911
서울특별시 도봉구 마들로 616 관리동,서울특별시 도봉구 방학동 720-1 대상타운현대아파트 관리동,37.6650862,127.048152
서울특별시 강서구 곰달래로57길 39 (화곡동),서울특별시 강서구 화곡동 806-4,37.5340156,126.8616011
"서울특별시 종로구 삼일대로 428, 낙원상가 (낙원동)",서울특별시 종로구 낙원동 288번지 낙원상가,37.5722238,126.9876399
"서울특별시 종로구 삼일대로 428, 낙원상가 (낙원동)",서울특별시 종로구 낙원동 288번지 낙원상가,37.5722238,126.9876399
서울특별시 강서구 화곡로 179 대한상공회의소 서울기술교육센터 (화곡동),서울특별시 강서구 화곡동 1063-12 대한상공회의소서울기술교육센터 대한상공회의소 서울기술교육센터,37.5423044,126.8413098
서울특별시 동작구 보라매로 77 (신대방동),서울특별시 동작구 신대방동 344-23,37.4963103,126.9274168
"서울특별시 마포구 신촌로26길 10, 우리마포복지관(대흥동주민센터) (노고산동)",서울특별시 마포구 노고산동 1번지 50호 우리마포복지관(대흥동주민센터),37.5562546,126.9427408
서울특별시 광진구 아차산로 262 .,서울특별시 광진구 자양동 227-7 더샵스타시티 .,37.5378082,127.0726426
"서울특별시 중구 을지로 29, 더존을지타워 (을지로1가)",서울특별시 중구 을지로1가 87 더존을지타워,37.5664715,126.9810472
"서울특별시 중구 을지로 29, 더존을지타워 (을지로1가)",서울특별시 중구 을지로1가 87 더존을지타워,37.5664715,126.9810472
"서울특별시 중구 을지로 29, 더존을지타워 (을지로1가)",서울특별시 중구 을지로1가 87 더존을지타워,37.5664715,126.9810472
서울특별시 도봉구 삼양로144길 33,서울특별시 도봉구 쌍문동 419 덕성여자대학교,37.6513304,127.0165719
"서울특별시 노원구 동일로 1449, 도봉운전면허시험장 (상계동)",서울특별시 노원구 상계동 580번지 9호 도봉운전면허시험장,37.6579759,127.0588431
서울특별시 도봉구 마들로 684-9 106동,서울특별시 도봉구 도봉동 641 서원아파트 106동,37.673451,127.0480901
서울특별시 도봉구 마들로 684-9 110동,서울특별시 도봉구 도봉동 641 서원아파트 110동,37.673451,127.0480901
서울특별시 도봉구 마들로 684-9 113동,서울특별시 도봉구 도봉동 641 서원아파트 113동,37.673451,127.0480901
서울특별시 도봉구 마들로 684-9 115동,서울특별시 도봉구 도봉동 641 서원아파트 115동,37.673451,127.0480901
서울특별시 도봉구 마들로 684-9 116동,서울특별시 도봉구 도봉동 641 서원아파트 116동,37.673451,127.0480901
서울특별시 도봉구 마들로 684-9 112동,서울특별시 도봉구 도봉동 641 서원아파트 112동,37.673451,127.0480901
서울특별시 도봉구 마들로 684-9 107동,서울특별시 도봉구 도봉동 641 서원아파트 107동,37.673451,127.0480901
서울특별시 도봉구 마들로 684-9 105동,서울특별시 도봉구 도봉동 641 서원아파트 105동,37.673451,127.0480901
서울특별시 도봉구 마들로 684-9 108동,서울특별시 도봉구 도봉동 641 서원아파트 108동,37.673451,127.0480901
서울특별시 도봉구 마들로 684-9 111동,서울특별시 도봉구 도봉동 641 서원아파트 111동,37.673451,127.0480901
서울특별시 도봉구 마들로 684-9 114동,서울특별시 도봉구 도봉동 641 서원아파트 114동,37.673451,127.0480901
서울특별시 도봉구 마들로 684-9 109동,서울특별시 도봉구 도봉동 641 서원아파트 109동,37.673451,127.0480901
"서울특별시 도봉구 마들로 684-20 (도봉동, 서원아파트)",서울특별시 도봉구 도봉동 641-1 서원아파트,37.6704232,127.0474639
서울특별시 도봉구 덕릉로59길 18 1층 로비 (창동),서울특별시 도봉구 창동 601-41 도봉청소년 누리터 '위드' 1층 로비,37.640746,127.0387074
"서울특별시 금천구 벚꽃로 100 (독산동, 독산역 롯데캐슬)",서울특별시 금천구 독산동 1005 독산역 롯데캐슬,37.4643261,126.8914279
"서울특별시 성북구 아리랑로 75 (돈암동, 돈암코오롱하늘채)",서울특별시 성북구 돈암동 644 돈암코오롱하늘채,37.5991724,127.0126747
"서울특별시 광진구 동일로 154, 동부참사랑요양병원 2층 (화양동)",서울특별시 광진구 화양동 24번지 17호,37.5467251,127.066882
"서울특별시 성북구 동소문로 306, 동서병원 (하월곡동)",서울특별시 성북구 하월곡동 88-747 동서병원,37.6069406,127.0289189
서울특별시 광진구 강변역로 50,서울특별시 광진구 구의동 546-1 동서울터미널빌딩,37.5339214,127.0935917
"서울특별시 강동구 진황도로 72, 동신중학교 (천호동)",서울특별시 강동구 천호동 447번지 9호 동신중학교,37.5357824,127.1341641
"서울특별시 동작구 노량진로 148, 서울동작경찰서 (노량진동)",서울특별시 동작구 노량진동 72-35 서울동작경찰서,37.513006,126.9427945
"서울특별시 동작구 노량진로 148, 서울동작경찰서 (노량진동)",서울특별시 동작구 노량진동 72-35 서울동작경찰서,37.513006,126.9427945
"서울특별시 동작구 노량진로 148, 서울동작경찰서 (노량진동)",서울특별시 동작구 노량진동 72-35 서울동작경찰서,37.513006,126.9427945
"서울특별시 동작구 장승배기로10길 42, 동작문화복지센타 (상도동)",서울특별시 동작구 상도동 176-3 동작문화복지센타,37.504415,126.9411223
"서울특별시 동작구 장승배기로10길 42, 동작문화복지센타 (상도동)",서울특별시 동작구 상도동 176-3 동작문화복지센타,37.504415,126.9411223
"서울특별시 동작구 장승배기로10길 42, 동작문화복지센타 (상도동)",서울특별시 동작구 상도동 176-3 동작문화복지센타,37.504415,126.9411223
"서울특별시 동작구 상도로11길 7, 동작노인복지관 (대방동)",서울특별시 동작구 대방동 335번지 10호 동작노인복지관,37.4997731,126.9300066
"서울특별시 동작구 사당로 299, ISU TEN BUILDING (사당동)",서울특별시 동작구 사당동 144번지 10호 ISU TEN BUILDING,37.4856195,126.9805717
서울특별시 강동구 양재대로 지하 1369,서울특별시 강동구 둔촌동 416 둔촌역,37.5281346,127.136375
"서울특별시 강동구 천호대로186길 7, 둔촌제2동주민센터 (둔촌동)",서울특별시 강동구 둔촌동 65 둔촌제2동주민센터,37.53335,127.141954
"서울특별시 강서구 공항대로43길 104 (등촌동, 등촌주공7,8단지아파트)","서울특별시 강서구 등촌동 707번지 등촌주공7,8단지아파트",37.5608052,126.851686
"서울특별시 강서구 공항대로43길 104 (등촌동, 등촌주공7,8단지아파트)","서울특별시 강서구 등촌동 707번지 등촌주공7,8단지아파트",37.5608052,126.851686
서울특별시 종로구 종로17길 52,서울특별시 종로구 낙원동 236-1 낙원빌딩,37.5724201,126.9885377
"서울특별시 은평구 통일로 630 (녹번동, 래미안베라힐즈)",서울특별시 은평구 녹번동 21-134 래미안베라힐즈,37.6028465,126.9359538
"서울특별시 강남구 개포로110길 50 (일원동, 래미안 루체하임)",서울특별시 강남구 일원동 741번지 래미안 루체하임,37.4893032,127.0798635
"서울특별시 성북구 숭인로 50 (길음동, 래미안길음센터피스)",서울특별시 성북구 길음동 498-1 래미안길음센터피스,37.6104226,127.0275786
서울특별시 마포구 토정로31길 23 (용강동),서울특별시 마포구 용강동 502 래미안 마포 리버웰,37.5423483,126.9418722
서울특별시 마포구 독막로20나길 21,서울특별시 마포구 상수동 398 래미안 밤섬리베뉴Ⅱ,37.5466459,126.9272235
"서울특별시 강남구 선릉로 8 (개포동, 래미안블레스티지)",서울특별시 강남구 개포동 1280번지 래미안블레스티지,37.4812001,127.0644352
"서울특별시 강남구 선릉로 8 (개포동, 래미안블레스티지)",서울특별시 강남구 개포동 1280번지 래미안블레스티지,37.4812001,127.0644352
"서울특별시 강동구 양재대로 1650 (명일동, 래미안 솔베뉴)",서울특별시 강동구 명일동 359번지 래미안 솔베뉴,37.552763,127.1453592
서울특별시 성동구 매봉길 15,서울특별시 성동구 옥수동 561 래미안 옥수 리버젠,37.5449681,127.0138606
서울특별시 성동구 매봉길 15,서울특별시 성동구 옥수동 561 래미안 옥수 리버젠,37.5449681,127.0138606
"서울특별시 성북구 장월로 160 (장위동, 래미안장위포레카운티)",서울특별시 성북구 장위동 144번지 24호 래미안장위포레카운티,37.618671,127.0520405
"서울특별시 성북구 한천로 713 (장위동, 래미안장위퍼스트하이)",서울특별시 성북구 장위동 173-114 래미안장위퍼스트하이,37.6191743,127.0523483
"서울특별시 성동구 금호로 107 (금호동2가, 래미안하이리버)",서울특별시 성동구 금호동2가 1217 래미안하이리버,37.5513012,127.0245486
서울특별시 성북구 한천로58길 307 (석관동),서울특별시 성북구 석관동 382,37.6101172,127.0700397
서울특별시 광진구 능동로 92 롯데백화점 건대스타시티 안전실,서울특별시 광진구 자양동 227-342 롯데백화점 롯데백화점 건대스타시티 안전실,37.5387939,127.0711478
"서울특별시 강남구 언주로 508, 공무원연금공단 (역삼동)",서울특별시 강남구 역삼동 701 공무원연금공단,37.503862,127.0431764
"서울특별시 강서구 마곡중앙1로 71 (마곡동, 마곡13단지힐스테이트마스터)",서울특별시 강서구 마곡동 748 마곡13단지힐스테이트마스터,37.5577741,126.8183905
"서울특별시 강서구 마곡중앙1로 71 (마곡동, 마곡13단지힐스테이트마스터)",서울특별시 강서구 마곡동 748 마곡13단지힐스테이트마스터,37.5577741,126.8183905
서울특별시 강서구 강서로47길 108,서울특별시 강서구 내발산동 742 마곡수명산파크1단지아파트,37.5543876,126.8302104
서울특별시 강서구 마곡중앙3로 74 .,서울특별시 강서구 마곡동 725-1 마곡힐스테이트 .,37.5640483,126.8178445
서울특별시 강서구 마곡중앙3로 74 .,서울특별시 강서구 마곡동 725-1 마곡힐스테이트 .,37.5640483,126.8178445
"서울특별시 마포구 월드컵로25길 190, 마포구민체육센터 (망원동)",서울특별시 마포구 망원동 450-3 마포구민체육센터,37.557793,126.8972337
"서울특별시 마포구 월드컵로 212, 마포구보건소 (성산동)",서울특별시 마포구 성산동 370 마포구청,37.5662611,126.9019455
"서울특별시 마포구 월드컵로 212, 마포구보건소 (성산동)",서울특별시 마포구 성산동 370 마포구청,37.5662611,126.9019455
"서울특별시 마포구 마포대로 195 (아현동, 마포 래미안 푸르지오)",서울특별시 마포구 아현동 774 마포 래미안 푸르지오,37.5527494,126.9528627
"서울특별시 마포구 마포대로 195 (아현동, 마포 래미안 푸르지오)",서울특별시 마포구 아현동 774 마포 래미안 푸르지오,37.5527494,126.9528627
"서울특별시 마포구 마포대로 195 (아현동, 마포 래미안 푸르지오)",서울특별시 마포구 아현동 774 마포 래미안 푸르지오,37.5527494,126.9528627
"서울특별시 마포구 마포대로 195 (아현동, 마포 래미안 푸르지오)",서울특별시 마포구 아현동 774 마포 래미안 푸르지오,37.5527494,126.9528627
"서울특별시 마포구 마포대로 195 (아현동, 마포 래미안 푸르지오)",서울특별시 마포구 아현동 774 마포 래미안 푸르지오,37.5527494,126.9528627
"서울특별시 마포구 마포대로 195 (아현동, 마포 래미안 푸르지오)",서울특별시 마포구 아현동 774 마포 래미안 푸르지오,37.5527494,126.9528627
"서울특별시 마포구 마포대로 195 (아현동, 마포 래미안 푸르지오)",서울특별시 마포구 아현동 774 마포 래미안 푸르지오,37.5527494,126.9528627
"서울특별시 마포구 마포대로 195 (아현동, 마포 래미안 푸르지오)",서울특별시 마포구 아현동 774 마포 래미안 푸르지오,37.5527494,126.9528627
"서울특별시 마포구 마포대로4라길 30 관리동 (마포동, 마포쌍용황금아파트)",서울특별시 마포구 마포동 253 마포쌍용황금아파트 관리동,37.5371038,126.9456319
"서울특별시 마포구 대흥로20길 28, 마포아트센터 (대흥동)",서울특별시 마포구 대흥동 30-3 마포아트센터,37.5499824,126.945554
"서울특별시 마포구 서강대길 40 (대흥동, 마포자이2차아파트)",서울특별시 마포구 대흥동 804 마포자이2차아파트,37.5491843,126.9420171
서울특별시 마포구 성산로 128,서울특별시 마포구 성산동 275-3 마포중앙도서관,37.5637962,126.9084696
서울특별시 마포구 성산로 128,서울특별시 마포구 성산동 275-3 마포중앙도서관,37.5637962,126.9084696
서울특별시 마포구 마포대로 53,서울특별시 마포구 도화동 559 마포트라팰리스 A동,37.5414498,126.9472325
서울특별시 마포구 마포대로 53,서울특별시 마포구 도화동 559 마포트라팰리스 A동,37.5414498,126.9472325
서울특별시 마포구 마포대로 53,서울특별시 마포구 도화동 559 마포트라팰리스 A동,37.5414498,126.9472325
서울특별시 마포구 마포대로 53,서울특별시 마포구 도화동 559 마포트라팰리스 A동,37.5414498,126.9472325
"서울특별시 마포구 희우정로 77 (망원동, 마포한강아이파크)",서울특별시 마포구 망원동 521번지 마포한강아이파크,37.5525963,126.9031338
"서울특별시 마포구 방울내로7길 11, 망원2동주민센터 (망원동)",서울특별시 마포구 망원동 436번지 14호 망원2동주민센터,37.5601333,126.9012625
"서울특별시 마포구 양화로 45 (서교동, 메세나폴리스)",서울특별시 마포구 서교동 490 메세나폴리스,37.5509391,126.9137859
"서울특별시 마포구 양화로 45 (서교동, 메세나폴리스)",서울특별시 마포구 서교동 490 메세나폴리스,37.5509391,126.9137859
서울특별시 서초구 강남대로 423 8층 메이드영 성형외과,서울특별시 서초구 서초동 1306-2 한승빌딩 8층 메이드영 성형외과,37.5002611,127.0258631
"서울특별시 영등포구 도림로 156, 명지성모병원 (대림동)",서울특별시 영등포구 대림동 709번지 1호 명지성모병원,37.4938988,126.8989952
서울특별시 영등포구 도림로 156 명지성모병원,서울특별시 영등포구 대림동 709-1 명지성모병원 명지성모병원,37.4939279,126.8992612
서울특별시 영등포구 도림로 156 명지성모병원,서울특별시 영등포구 대림동 709-1 명지성모병원 명지성모병원,37.4939279,126.8992612
"서울특별시 양천구 오목로 299, 목동트라팰리스 (목동)",서울특별시 양천구 목동 962번지 목동트라팰리스,37.5260024,126.8703909
"서울특별시 양천구 오목로 299, 목동트라팰리스 (목동)",서울특별시 양천구 목동 962번지 목동트라팰리스,37.5260024,126.8703909
"서울특별시 양천구 오목로 299, 목동트라팰리스 (목동)",서울특별시 양천구 목동 962번지 목동트라팰리스,37.5260024,126.8703909
"서울특별시 강남구 광평로19길 15 (일원동, 목련타운아파트)","서울특별시 강남구 일원동 716 목련타운아파트 (일원동, 목련타운아파트)",37.4848544,127.0852904
서울특별시 성동구 행당로 120 (행당동),서울특별시 성동구 행당동 322-1 무학중학교,37.5574044,127.0328821
"서울특별시 성북구 화랑로32길 146-20, 문화재청의릉지구관리소 (석관동)",서울특별시 성북구 석관동 409 문화재청의릉지구관리소,37.6038195,127.0558827
서울특별시 서초구 고무래로 71 반포고등학교 (반포동),서울특별시 서초구 반포동 30-19 반포고등학교 반포고등학교,37.5019738,127.0165896
서울특별시 도봉구 방학로15길 26-7,서울특별시 도봉구 방학동 530 신동아3차아파트,37.6603033,127.0230833
서울특별시 도봉구 해등로 295 (방학동) 우성1차아파트,서울특별시 도봉구 방학동 507 우성1차아파트,37.6579642,127.0238773
서울특별시 강서구 금낭화로23길 8,서울특별시 강서구 방화동 817 방화7단지동성아파트,37.5796096,126.8121904
서울특별시 강서구 금낭화로23길 8,서울특별시 강서구 방화동 817 방화7단지동성아파트,37.5796096,126.8121904
서울특별시 강서구 금낭화로23길 8,서울특별시 강서구 방화동 817 방화7단지동성아파트,37.5796096,126.8121904
서울특별시 강서구 금낭화로23길 8,서울특별시 강서구 방화동 817 방화7단지동성아파트,37.5796096,126.8121904
서울특별시 강서구 금낭화로23길 8,서울특별시 강서구 방화동 817 방화7단지동성아파트,37.5796096,126.8121904
서울특별시 강서구 금낭화로23길 8,서울특별시 강서구 방화동 817 방화7단지동성아파트,37.5796096,126.8121904
"서울특별시 영등포구 여의대방로35가길 19 (신길동, 보라매 SK VIEW)",서울특별시 영등포구 신길동 1583번지 1호 보라매 SK VIEW,37.5022414,126.9178732
"서울특별시 관악구 행운1라길 17, 서울봉천초등학교 (봉천동)",서울특별시 관악구 봉천동 28번지 6호 서울봉천초등학교,37.4835272,126.9560853
서울특별시 노원구 섬밭로 181 경춘선폐선부지 무궁화호 객차내,서울특별시 노원구 하계동 272-2 중현초등학교 경춘선폐선부지 무궁화호 객차내,37.6321002,127.0665471
서울특별시 도봉구 마들로 916,서울특별시 도봉구 도봉동 4-1 방문자센터,37.6894988,127.0479591
서울특별시 종로구 비봉2길 90,서울특별시 종로구 구기동 산3-20,37.6157168,126.9607556
"서울특별시 성북구 정릉로 169, 5층 (정릉동)",서울특별시 성북구 정릉동 675-1 5층,37.6080303,127.0039081
서울특별시 성북구 보국문로 262,서울특별시 성북구 정릉동 산1-1 북한산국립공원,37.6242456,126.9901479
"서울특별시 성북구 보국문로 215, 북한산국립공원 (정릉동)",서울특별시 성북구 정릉동 829 북한산국립공원,37.6180528,126.99767
"서울특별시 서대문구 통일로 510 북한산더샵아파트 관리사무소 (홍은동, 북한산 더샵)",서울특별시 서대문구 홍은동 450-5 북한산 더샵 북한산더샵아파트 관리사무소,37.5945702,126.9411674
"서울특별시 은평구 통일로 660 (녹번동, 북한산푸르지오아파트)",서울특별시 은평구 녹번동 281 북한산푸르지오아파트,37.6067992,126.9365322
"서울특별시 은평구 통일로 660 (녹번동, 북한산푸르지오아파트)",서울특별시 은평구 녹번동 281 북한산푸르지오아파트,37.6067992,126.9365322
"서울특별시 관악구 승방7길 31 (남현동, 사당동아파트)",서울특별시 관악구 남현동 602-220 사당동아파트,37.4720883,126.9808646
서울특별시 동작구 남부순환로 2081 (사당동),서울특별시 동작구 사당동 1044번지 42호,37.4771474,126.9785439
"서울특별시 광진구 아차산로63길 21, 산의마을경로당 (구의동)",서울특별시 광진구 구의동 210-75 산의마을경로당,37.5403103,127.0922876
"서울특별시 강남구 테헤란로 114, 6층 (역삼동)",서울특별시 강남구 역삼동 824,37.4982818,127.0297311
"서울특별시 노원구 화랑로 815, 삼육대학교 (공릉동)",서울특별시 노원구 공릉동 26-106 삼육대학교,37.6450022,127.1054339
"서울특별시 노원구 수락산로 234 상계현대3차아파트 (상계동, 상계3차현대아파트)","서울특별시 노원구 수락산로 234 상계현대3차아파트 (상계동, 상계3차현대아파트)",37.6715073,127.0533003
"서울특별시 노원구 수락산로 234 상계현대3차아파트 (상계동, 상계3차현대아파트)",서울특별시 노원구 상계동 1063 상계3차현대아파트 상계현대3차아파트,37.6715389,127.0530338
"서울특별시 동작구 매봉로 36, 동작구립 상도은빛어르신복지관 (상도1동)",서울특별시 동작구 상도1동 535번지 동작구립 상도은빛어르신복지관,37.5064867,126.9513244
서울특별시 강남구 광평로10길 15 상록수아파트,서울특별시 강남구 일원동 734 상록수아파트 상록수아파트,37.4820195,127.0821283
"서울특별시 노원구 덕릉로 553, 상명고등학교 (중계동)",서울특별시 노원구 중계동 515 상명고등학교,37.6492503,127.0683166
서울특별시 종로구 홍지문2길 20 본교3층 복도중앙벽면 (홍지동),서울특별시 종로구 홍지동 7-1 상명대학교 본교3층 복도중앙벽면,37.6028362,126.9550404
"서울특별시 마포구 월드컵로42길 40, 상암근린상가 (상암동)",서울특별시 마포구 상암동 1680번지 상암근린상가,37.5802754,126.8807054
"서울특별시 마포구 월드컵북로47길 46 관리사무실 (상암동, 상암월드컵파크 2단지)",서울특별시 마포구 상암동 1637 상암월드컵파크 2단지 관리사무실,37.5748547,126.8915876
서울특별시 강동구 고덕로 지하 359,서울특별시 강동구 상일동 148 상일동역,37.5535023,127.1569018
"서울특별시 강동구 천호대로219길 61, 상일여자중고등학교 (상일동)",서울특별시 강동구 상일동 189 상일여자중고등학교,37.5488674,127.1700188
"서울특별시 강동구 천호대로219길 61, 상일여자중고등학교 (상일동)",서울특별시 강동구 상일동 189 상일여자중고등학교,37.5488674,127.1700188
서울특별시 강남구 봉은사로114길 20 (삼성동),서울특별시 강남구 삼성동 164 새마을금고중앙회,37.5138452,127.0653975
"서울특별시 마포구 독막로 165, 서강동주민센터 (창전동)",서울특별시 마포구 창전동 242 서강동주민센터,37.5477259,126.9320294
서울특별시 서초구 동광로12길 84,서울특별시 서초구 방배동 1514 서문여자고등학교,37.4889074,126.9851026
서울특별시 강서구 마곡중앙로 150 서브원 강서사옥 (마곡동),서울특별시 강서구 마곡동 766 (주)서브원강서사옥 서브원 강서사옥,37.5670572,126.828575
서울특별시 강서구 마곡중앙로 150 서브원 강서사옥 (마곡동),서울특별시 강서구 마곡동 766 (주)서브원강서사옥 서브원 강서사옥,37.5670572,126.828575
"서울특별시 강서구 양천로55길 22, 서울서진학교 (가양동)",서울특별시 강서구 가양동 1477번지 서울서진학교,37.5652566,126.8502345
서울특별시 강동구 강동대로 327 (둔촌동),서울특별시 강동구 둔촌동 227-7,37.518526,127.1408949
서울특별시 강동구 동남로 지하 625 (둔촌동),서울특별시 강동구 둔촌동 8-1 중앙보훈병원역,37.5283503,127.1483612
"서울특별시 구로구 금오로 867, 서울남부교도소 (천왕동)",서울특별시 구로구 천왕동 272,37.4771553,126.8371942
"서울특별시 종로구 대학로 101, 서울대학교병원 (연건동)",서울특별시 종로구 연건동 28-21 서울대학교병원,37.579166,126.9987981
"서울특별시 관악구 관악로 1, 서울대학교 (신림동)",서울특별시 관악구 신림동 산 56번지 1호 서울대학교,37.4533695,126.9571696
"서울특별시 종로구 대학로 101, 서울대학교 치과병원 (연건동)",서울특별시 종로구 연건동 28-21 서울대학교 치과병원,37.579166,126.9987981
서울특별시 도봉구 방학로3길 132,서울특별시 도봉구 쌍문동 43-3 쌍문파출소,37.6575825,127.0380448
서울특별시 종로구 율곡로 102 (와룡동),서울특별시 종로구 와룡동 12-2 서울돈화문국악당,37.577253,126.9907256
서울특별시 관악구 관악로 85,서울특별시 관악구 봉천동 1695 문영학원,37.4729453,126.9514529
"서울특별시 관악구 문성로 79, 서울미성초등학교 (신림동)",서울특별시 관악구 신림동 768번지 21호 서울미성초등학교,37.4786901,126.912578
서울특별시 도봉구 삼양로146길 17,서울특별시 도봉구 쌍문동 422-2 백운초등학교,37.6530759,127.0136416
서울특별시 도봉구 노해로 313,서울특별시 도봉구 창동 327-1 북부교육청,37.6518271,127.0433544
서울특별시 도봉구 마들로 747,서울특별시 도봉구 도봉동 626-20 서울북부지방검찰청,37.676422,127.0462784
서울특별시 도봉구 마들로 747,서울특별시 도봉구 도봉동 626-20 서울북부지방검찰청,37.676422,127.0462784
서울특별시 도봉구 마들로 747,서울특별시 도봉구 도봉동 626-20 서울북부지방검찰청,37.676422,127.0462784
서울특별시 도봉구 마들로 747,서울특별시 도봉구 도봉동 626-20 서울북부지방검찰청,37.676422,127.0462784
서울특별시 도봉구 마들로 747,서울특별시 도봉구 도봉동 626-20 서울북부지방검찰청,37.676422,127.0462784
서울특별시 도봉구 마들로 747,서울특별시 도봉구 도봉동 626-20 서울북부지방검찰청,37.676422,127.0462784
"서울특별시 종로구 대학로 64, 서울대 사범대학 부설 초등학교,여자중학교 1층 (이화동)","서울특별시 종로구 이화동 149번지 서울대 사범대학 부설 초등학교,여자중학교",37.5773118,127.0036302
"서울특별시 마포구 마포대로 174, 서부지방법원, 서부지방검찰청 (공덕동)","서울특별시 마포구 공덕동 105번지 1호 서부지방법원, 서부지방검찰청",37.5494331,126.9554867
"서울특별시 마포구 마포대로 174, 서부지방법원, 서부지방검찰청 (공덕동)","서울특별시 마포구 공덕동 105번지 1호 서부지방법원, 서부지방검찰청",37.5494331,126.9554867
"서울특별시 마포구 마포대로 174, 서부지방법원, 서부지방검찰청 (공덕동)","서울특별시 마포구 공덕동 105번지 1호 서부지방법원, 서부지방검찰청",37.5494331,126.9554867
"서울특별시 마포구 마포대로 174, 서부지방법원, 서부지방검찰청 (공덕동)","서울특별시 마포구 공덕동 105-1 서부지방법원, 서부지방검찰청",37.5494331,126.9554867
"서울특별시 마포구 마포대로 174, 서부지방법원, 서부지방검찰청 (공덕동)","서울특별시 마포구 공덕동 105-1 서부지방법원, 서부지방검찰청",37.5494331,126.9554867
"서울특별시 마포구 마포대로 174, 서부지방법원, 서부지방검찰청 (공덕동)","서울특별시 마포구 공덕동 105-1 서부지방법원, 서부지방검찰청",37.5494331,126.9554867
"서울특별시 마포구 마포대로 174, 서부지방법원, 서부지방검찰청 (공덕동)","서울특별시 마포구 공덕동 105-1 서부지방법원, 서부지방검찰청",37.5494331,126.9554867
서울특별시 성북구 돌곶이로22길 21 (석관동),서울특별시 성북구 석관동 205 서울석관초등학교 (석관동),37.610909,127.0591828
서울특별시 성동구 뚝섬로 273 서울숲 공원,서울특별시 성동구 성수동1가 685-20 서울숲 관리사무소 서울숲 공원,37.5450536,127.0407925
서울특별시 성동구 뚝섬로 273 서울숲 공원,서울특별시 성동구 성수동1가 685-20 서울숲 관리사무소 서울숲 공원,37.5450536,127.0407925
서울특별시 성동구 뚝섬로 273 서울숲 공원,서울특별시 성동구 성수동1가 685-20 서울숲 관리사무소 서울숲 공원,37.5450536,127.0407925
서울특별시 성동구 왕십리로 지하 77,서울특별시 성동구 성수동1가 656-436 서울숲역,37.5440295,127.0448789
"서울특별시 강남구 봉은사로114길 43, 서울의료원 5층 (삼성동)",서울특별시 강남구 삼성동 171번지 1호 서울의료원,37.5143529,127.06629
"서울특별시 구로구 경인로 430, 고척스카이돔 (고척동)",서울특별시 구로구 고척동 63-6 고척스카이돔,37.4989487,126.8671193
"서울특별시 구로구 경인로 430, 고척스카이돔 (고척동)",서울특별시 구로구 고척동 63-6 고척스카이돔,37.4989487,126.8671193
"서울특별시 구로구 경인로 430, 고척스카이돔 (고척동)",서울특별시 구로구 고척동 63-6 고척스카이돔,37.4989487,126.8671193
"서울특별시 구로구 경인로 430, 고척스카이돔 (고척동)",서울특별시 구로구 고척동 63-6 고척스카이돔,37.4989487,126.8671193
서울특별시 도봉구 시루봉로 173,서울특별시 도봉구 방학동 310 신방학초등학교,37.6657736,127.0294643
서울특별시 도봉구 덕릉로60길 93,서울특별시 도봉구 창동 468-1 신창초등학교,37.6362629,127.0421447
"서울특별시 송파구 올림픽로43길 88, 서울아산병원 (풍납동)",서울특별시 송파구 풍납동 388-1 서울아산병원,37.5262977,127.1094978
"서울특별시 송파구 올림픽로43길 88, 서울아산병원 (풍납동)",서울특별시 송파구 풍납동 388-1 서울아산병원,37.5262977,127.1094978
"서울특별시 송파구 올림픽로43길 88, 서울아산병원 (풍납동)",서울특별시 송파구 풍납동 388-1 서울아산병원,37.5262977,127.1094978
"서울특별시 송파구 올림픽로43길 88, 서울아산병원 (풍납동)",서울특별시 송파구 풍납동 388-1 서울아산병원,37.5262977,127.1094978
"서울특별시 송파구 올림픽로43길 88, 서울아산병원 (풍납동)",서울특별시 송파구 풍납동 388-1 서울아산병원,37.5262977,127.1094978
"서울특별시 송파구 올림픽로43길 88, 서울아산병원 (풍납동)",서울특별시 송파구 풍납동 388-1 서울아산병원,37.5262977,127.1094978
"서울특별시 송파구 올림픽로43길 88, 서울아산병원 (풍납동)",서울특별시 송파구 풍납동 388-1 서울아산병원,37.5262977,127.1094978
"서울특별시 송파구 올림픽로43길 88, 서울아산병원 (풍납동)",서울특별시 송파구 풍납동 388-1 서울아산병원,37.5262977,127.1094978
서울특별시 성북구 인촌로7가길 39,서울특별시 성북구 안암동2가 93 서울안암초등학교,37.5872085,127.0226393
서울특별시 은평구 통일로 650 서울 어울초등학교 (녹번동),서울특별시 은평구 녹번동 281-5 서울 어울초등학교,37.6063512,126.9351406
서울특별시 중구 세종대로 지하 2,서울특별시 중구 남대문로5가 73-6 서울역 1호선,37.5569057,126.9725622
"서울특별시 중구 만리재로 175 (만리동2가, 서울역센트럴자이)",서울특별시 중구 만리동2가 37-2 서울역센트럴자이,37.5549273,126.9639739
"서울특별시 중구 만리재로 175 (만리동2가, 서울역센트럴자이)",서울특별시 중구 만리동2가 37-2 서울역센트럴자이,37.5549273,126.9639739
"서울특별시 중구 만리재로 175 (만리동2가, 서울역센트럴자이)",서울특별시 중구 만리동2가 37-2 서울역센트럴자이,37.5549273,126.9639739
"서울특별시 중구 만리재로 175 (만리동2가, 서울역센트럴자이)",서울특별시 중구 만리동2가 37-2 서울역센트럴자이,37.5549273,126.9639739
"서울특별시 중구 만리재로 175 (만리동2가, 서울역센트럴자이)",서울특별시 중구 만리동2가 37-2 서울역센트럴자이,37.5549273,126.9639739
서울특별시 마포구 백범로17길 9,서울특별시 마포구 대흥동 35-1 용강초등학교,37.549109,126.9440521
서울특별시 강남구 헌릉로569길 41 세곡동 (세곡동),서울특별시 강남구 세곡동 601 서울은곡유치원 세곡동,37.4668092,127.096972
"서울특별시 관악구 낙성대로 23, 서울인헌초등학교 (봉천동)",서울특별시 관악구 봉천동 212번지 3호 서울인헌초등학교,37.4757995,126.9597625
서울특별시 도봉구 마들로13길 166,서울특별시 도봉구 창동 181-19 자운초등학교,37.6577731,127.0466403
"서울특별시 종로구 새문안로 9, 서울적십자병원 (평동)",서울특별시 종로구 평동 164번지 서울적십자병원,37.5673916,126.9669846
"서울특별시 종로구 새문안로 9, 서울적십자병원 (평동)",서울특별시 종로구 평동 164번지 서울적십자병원,37.5673916,126.9669846
"서울특별시 강남구 봉은사로81길 16, 서울정애학교 (삼성동)",서울특별시 강남구 삼성동 74번지 13호 서울정애학교,37.5164079,127.0544515
서울특별시 관악구 조원로 67 서울조원초등학교 (신림동),서울특별시 관악구 신림동 548-2 서울조원초등학교 서울조원초등학교,37.4841394,126.9095795
서울특별시 종로구 종로5길 86 1층 당직실 (수송동),서울특별시 종로구 수송동 104 국세청 1층 당직실,37.5740767,126.9798665
"서울특별시 종로구 대학로 42, 서울지방국세청 효제별관 1층 (효제동)",서울특별시 종로구 효제동 20번지 3호 서울지방국세청 효제별관,37.5751298,127.0025116
서울특별시 도봉구 도봉로129길 54,서울특별시 도봉구 쌍문동 72 창경초등학교,37.6560507,127.0350456
서울특별시 도봉구 해등로16길 81,서울특별시 도봉구 창동 266 창동초등학교,37.6551199,127.0447803
서울특별시 도봉구 덕릉로63길 46,서울특별시 도봉구 창동 411-8 창림초등학교,37.6432491,127.0414423
서울특별시 도봉구 해등로 103,서울특별시 도봉구 창동 308 서울창원초등학교,37.6523441,127.0406484
"서울특별시 종로구 세종대로 209, 정부서울청사 (세종로)",서울특별시 종로구 세종로 77-6 정부서울청사,37.574848,126.9754237
"서울특별시 강동구 동남로 964, 서울컨벤션고등학교 (고덕동)",서울특별시 강동구 고덕동 295번지 1호 서울컨벤션고등학교,37.5600362,127.1582276
"서울특별시 동대문구 무학로 124, 시립동부병원 (용두동)",서울특별시 동대문구 용두동 118번지 20호 시립동부병원,37.5761365,127.0320305
"서울특별시 은평구 갈현로7길 49, 서울서북병원 (역촌동)",서울특별시 은평구 역촌동 산 31번지 1호 서울서북병원,37.6043238,126.9037195
"서울특별시 은평구 갈현로7길 49, 서울서북병원 (역촌동)",서울특별시 은평구 역촌동 산 31번지 1호 서울서북병원,37.6043238,126.9037195
"서울특별시 중랑구 신내로 156, 서울의료원 (신내동)",서울특별시 중랑구 신내동 316 서울의료원,37.6129875,127.0979707
"서울특별시 중랑구 신내로 156, 서울의료원 (신내동)",서울특별시 중랑구 신내동 316 서울의료원,37.6129875,127.0979707
서울특별시 서초구 헌릉로 260 삼성발달센터 5층,서울특별시 서초구 내곡동 375 서울시립어린이병원 삼성발달센터 5층,37.4554185,127.0692801
서울특별시 서초구 헌릉로 260 삼성발달센터 3층,서울특별시 서초구 내곡동 375 서울시립어린이병원 삼성발달센터 3층,37.4554185,127.0692801
"서울특별시 중구 세종대로 110, 서울특별시청 시민청 지하 1,2층 (태평로1가)",서울특별시 중구 태평로1가 31 서울특별시청,37.5665984,126.9782095
"서울특별시 중구 세종대로 110, 서울특별시청 시민청 지하 1,2층 (태평로1가)",서울특별시 중구 태평로1가 31 서울특별시청,37.5665984,126.9782095
서울특별시 종로구 송월길 48,서울특별시 종로구 신문로2가 2-77 서울시교육청,37.5699286,126.9674068
"서울특별시 서초구 양재천로 33, 양재도서관 1층 (양재동)",서울특별시 서초구 양재동 102-5 양재도서관 1층 주출입구,37.4737476,127.0341593
"서울특별시 서초구 서운로 62 (서초동, 래미안 리더스원)",서울특별시 서초구 서초동 1336 래미안 리더스원,37.4902076,127.0284449
"서울특별시 성동구 매봉길 49-29, 응봉근린공원(매봉산) 책쉼터(숲속도서관) (옥수동)",서울특별시 성동구 옥수동 528-6 응봉근린공원(매봉산) 책쉼터(숲속도서관),37.5458741,127.0110323
"서울특별시 성동구 왕십리로 89, 성동구민종합체육쎈터 (성수동1가)",서울특별시 성동구 성수동1가 685번지 697호 성동구민종합체육쎈터,37.5485992,127.043217
"서울특별시 성동구 마장로23길 10, 성동구보건소 (홍익동)",서울특별시 성동구 홍익동 16-15 성동구보건소,37.5670965,127.0331243
"서울특별시 성동구 광나루로 297, 성동세무서 1층 (송정동)",서울특별시 성동구 송정동 67번지 6호 성동세무서,37.5483682,127.0638397
"서울특별시 성동구 왕십리로5길 3, 성수1가제2동 공공복합청사 4층 (성수동1가)",서울특별시 성동구 성수동1가 685-580 성수1가제2동 공공복합청사,37.546365,127.0443365
"서울특별시 성북구 지봉로24길 26, 3층 (보문동5가)",서울특별시 성북구 보문동5가 35번지 3층,37.5838684,127.0192498
서울특별시 성북구 장월로 89-6 (장위동),서울특별시 성북구 장위동 238-186,37.6140598,127.0484683
서울특별시 성북구 종암로24가길 109 (종암동),서울특별시 성북구 종암동 104-4,37.6016227,127.0381608
서울특별시 성북구 종암로24가길 109 (종암동),서울특별시 성북구 종암동 104-4,37.6016227,127.0381608
"서울특별시 마포구 월드컵북로30길 22, 성산2동주민센터 (성산동)",서울특별시 마포구 성산동 603번지 성산2동주민센터,37.5686587,126.9089579
"서울특별시 성북구 보문로34다길 2, 성신여자대학교 (돈암동)",서울특별시 성북구 돈암동 173번지 1호 성신여자대학교,37.5919409,127.0220297
"서울특별시 성북구 보문로34다길 2, 성신여자대학교 (돈암동)",서울특별시 성북구 돈암동 173번지 1호 성신여자대학교,37.5919409,127.0220297
서울특별시 성북구 보문로34다길 2 (돈암동) (돈암동),서울특별시 성북구 돈암동 173-1 성신여자대학교 (돈암동),37.5919409,127.0220297
"서울특별시 성북구 북악산로 918, 성신초등학교,성신여자중학교 (돈암동)","서울특별시 성북구 돈암동 산 11-269 성신초등학교,성신여자중학교",37.59419,127.022977
"서울특별시 성동구 왕십리로 410 생활지원센터 (하왕십리동, 센트라스)",서울특별시 성동구 하왕십리동 1070 센트라스 생활지원센터,37.5661086,127.027631
"서울특별시 성동구 왕십리로 410 생활지원센터 (하왕십리동, 센트라스)",서울특별시 성동구 하왕십리동 1070 센트라스 생활지원센터,37.5661086,127.027631
"서울특별시 서초구 신반포로 176, 센트럴시티 (반포동)",서울특별시 서초구 반포동 19-3 신세계센트럴시티(호남선터미널),37.5043628,127.0036394
"서울특별시 서초구 신반포로 176, 센트럴시티 (반포동)",서울특별시 서초구 반포동 19-3 신세계센트럴시티(호남선터미널),37.5043628,127.0036394
서울특별시 중구 남대문로5길 15,서울특별시 중구 북창동 93-42 THE HOTEL M Seoul,37.5620745,126.9787605
"서울특별시 송파구 송파대로 345 (가락동, 헬리오시티)",서울특별시 송파구 가락동 479 헬리오시티,37.4977248,127.107032
"서울특별시 노원구 동일로 1729, 수락중학교 (상계동)",서울특별시 노원구 상계동 1254번지 수락중학교,37.6829675,127.0545844
"서울특별시 종로구 사직로8길 4 풍림스페이스본상가 301동 B205, 210호","서울특별시 종로구 사직동 9 풍림스페이스본상가 301동 B205, 210호",37.5744343,126.9689117
"서울특별시 관악구 신림로48길 17-16, 서울신관중학교 (신림동)",서울특별시 관악구 신림동 87-81 서울신관중학교,37.4802299,126.9347503
"서울특별시 영등포구 가마산로 426 (신길동, 신길센트럴아이파크)",서울특별시 영등포구 신길동 4955번지 신길센트럴아이파크,37.5041228,126.9046632
"서울특별시 영등포구 신길로29길 17 (신길동, 신길센트럴자이)",서울특별시 영등포구 신길동 337번지 246호 신길센트럴자이,37.5027887,126.9075132
"서울특별시 동작구 여의대방로22아길 22 (신대방동, 신동아아파트)",서울특별시 동작구 신대방동 360-17 신동아아파트,37.4965836,126.9240174
서울특별시 관악구 문성로 119,서울특별시 관악구 신림동 산197-1 서울신림고등학교,37.4785623,126.9172505
"서울특별시 관악구 남부순환로 1430 (신림동, 신림푸르지오아파트)",서울특별시 관악구 신림동 1730 신림푸르지오아파트,37.4791306,126.9104854
"서울특별시 서초구 잠원로 60, 신반포자이아파트 (잠원동, 신반포자이)",서울특별시 서초구 잠원동 160번지 신반포자이아파트,37.5101413,127.0084255
서울특별시 도봉구 시루봉로 156,서울특별시 도봉구 방학동 307-1 신방학중학교,37.6639018,127.0295093
"서울특별시 서초구 신반포로 176, 센트럴시티 (반포동)",서울특별시 서초구 반포동 19-3 신세계센트럴시티(호남선터미널),37.5043628,127.0036394
"서울특별시 마포구 독막로 192, 신수동주민센터 (신수동)",서울특별시 마포구 신수동 458번지 신수동주민센터,37.5471019,126.9351851
"서울특별시 마포구 대흥로 175 (대흥동, 신촌그랑자이)",서울특별시 마포구 대흥동 17번지 5호 신촌그랑자이,37.5550937,126.9452941
"서울특별시 마포구 대흥로 175 (대흥동, 신촌그랑자이)",서울특별시 마포구 대흥동 17번지 5호 신촌그랑자이,37.5550937,126.9452941
"서울특별시 마포구 대흥로 175 (대흥동, 신촌그랑자이)",서울특별시 마포구 대흥동 17번지 5호 신촌그랑자이,37.5550937,126.9452941
"서울특별시 마포구 대흥로 175 (대흥동, 신촌그랑자이)",서울특별시 마포구 대흥동 17번지 5호 신촌그랑자이,37.5550937,126.9452941
"서울특별시 마포구 대흥로 175 (대흥동, 신촌그랑자이)",서울특별시 마포구 대흥동 17번지 5호 신촌그랑자이,37.5550937,126.9452941
"서울특별시 마포구 대흥로 175 (대흥동, 신촌그랑자이)",서울특별시 마포구 대흥동 17번지 5호 신촌그랑자이,37.5550937,126.9452941
"서울특별시 마포구 대흥로 175 (대흥동, 신촌그랑자이)",서울특별시 마포구 대흥동 17번지 5호 신촌그랑자이,37.5550937,126.9452941
"서울특별시 마포구 광성로 17 (신수동, 신촌숲아이파크)",서울특별시 마포구 신수동 462 신촌숲아이파크,37.5510913,126.9344262
서울특별시 마포구 서강로9길 45,서울특별시 마포구 창전동 439 태영아파트,37.5533735,126.9309792
서울특별시 관악구 남부순환로 1717,서울특별시 관악구 봉천동 931-7 실로암시각장애인복지관,37.4830366,126.9411572
서울특별시 도봉구 시루봉로6길 53,서울특별시 도봉구 쌍문동 50 현대2차아파트,37.6593104,127.0305441
서울특별시 노원구 월계로45가길 57,서울특별시 노원구 월계동 820 아시아퍼시픽 국제학교,37.6308035,127.0505031
"서울특별시 강남구 영동대로 640 (삼성동, 아이파크삼성)",서울특별시 강남구 삼성동 87 아이파크삼성,37.5182931,127.0593575
"서울특별시 강남구 영동대로 640 (삼성동, 아이파크삼성)",서울특별시 강남구 삼성동 87 아이파크삼성,37.5182931,127.0593575
"서울특별시 강남구 영동대로 640 (삼성동, 아이파크삼성)",서울특별시 강남구 삼성동 87 아이파크삼성,37.5182931,127.0593575
"서울특별시 강남구 영동대로 640 (삼성동, 아이파크삼성)",서울특별시 강남구 삼성동 87 아이파크삼성,37.5182931,127.0593575
"서울특별시 강남구 영동대로 640 (삼성동, 아이파크삼성)",서울특별시 강남구 삼성동 87 아이파크삼성,37.5182931,127.0593575
서울특별시 동작구 현충로 100-1 . (흑석동),서울특별시 동작구 흑석동 9-89 .,37.5076508,126.9647394
"서울특별시 마포구 마포대로11길 44-81, 아현문화건강센터 (아현동)",서울특별시 마포구 아현동 770 아현문화건강센터,37.5521463,126.9513327
서울특별시 마포구 마포대로11길 44-81 아현문화건강센터 (아현동),서울특별시 마포구 아현동 770 아현문화건강센터 아현문화건강센터,37.5521463,126.9513327
"서울특별시 마포구 마포대로11길 44-81, 아현문화건강센터 (아현동)",서울특별시 마포구 아현동 770 아현문화건강센터,37.5521463,126.9513327
"서울특별시 마포구 마포대로11길 44-81, 아현문화건강센터 (아현동)",서울특별시 마포구 아현동 770 아현문화건강센터,37.5521463,126.9513327
"서울특별시 마포구 환일길 3, 아현경로문화센터 (아현동)",서울특별시 마포구 아현동 710 아현경로문화센터,37.5574718,126.9603195
서울특별시 강동구 올림픽로 지하 776,서울특별시 강동구 암사동 501 암사역,37.5511668,127.1282309
서울특별시 중구 동호로10길 30,서울특별시 중구 신당동 842 약수하이츠,37.5547727,127.0147033
서울특별시 영등포구 63로 10 여의도성모병원,서울특별시 영등포구 여의도동 62 여의도성모병원 여의도성모병원,37.5180934,126.9365809
"서울특별시 영등포구 여의대방로 439, 여의도초등학교 (여의도동)",서울특별시 영등포구 여의도동 40번지 3호 여의도초등학교,37.5234281,126.9342433
"서울특별시 강남구 논현로72길 16, 초원빌딩 2층 (역삼동)",서울특별시 강남구 역삼동 775번지 2호 초원빌딩,37.4955215,127.0405287
"서울특별시 강남구 도곡로43길 10, 역삼중학교 (역삼동)",서울특별시 강남구 역삼동 767-20 역삼중학교,37.4956481,127.0488853
"서울특별시 관악구 남부순환로 1814, 대연빌딩 (봉천동)",서울특별시 관악구 봉천동 869번지 12호 대연빌딩,37.4811548,126.9513316
"서울특별시 동작구 사당로 300 (사당동, 이수자이)",서울특별시 동작구 사당동 147번지 29호 이수자이,37.4861391,126.9818111
서울특별시 노원구 월계로45가길 9 염광고등학교 (월계동),"서울특별시 노원구 월계동 820 염광중,고,메디텍고,유치원 염광고등학교",37.6308035,127.0505031
"서울특별시 노원구 월계로45가길 9, 염광중,고,메디텍고,유치원 (월계동)","서울특별시 노원구 월계동 820번지 염광중,고,메디텍고,유치원",37.6308035,127.0505031
서울특별시 영등포구 당산로 123 영등포구보건소,서울특별시 영등포구 당산로 123 영등포구보건소,37.526436,126.896004
"서울특별시 영등포구 신길로 55, 사랑나눔의집 (신길동)",서울특별시 영등포구 신길동 440-57 사랑나눔의집,37.4975488,126.9079871
서울특별시 영등포구 당산로 123 영등포구청,서울특별시 영등포구 당산로 123 영등포구청,37.526436,126.896004
"서울특별시 영등포구 양산로 111, 영등포구청 별관 (당산동3가)",서울특별시 영등포구 당산동3가 370-4 영등포구청 별관,37.524581,126.8956063
서울특별시 영등포구 당산로29길 9 (당산동3가),서울특별시 영등포구 당산동3가 407,37.5259745,126.8939701
"서울특별시 영등포구 도림로 482, 영등포노인종합복지관/영등포노인케어센터 (문래동3가)",서울특별시 영등포구 문래동3가 76번지 2호 영등포노인종합복지관/영등포노인케어센터,37.5163791,126.8927664
"서울특별시 영등포구 신풍로 1, 영등포제1스포츠센터 (신길동)",서울특별시 영등포구 신길동 426번지 3호 영등포제1스포츠센터,37.5004227,126.905842
"서울특별시 영등포구 양평로22길 21, 선유도 코오롱디지털타워 (양평동5가)",서울특별시 영등포구 양평동5가 106-1 선유도 코오롱디지털타워,37.5399976,126.8942887
"서울특별시 성동구 난계로 100 (하왕십리동, 왕십리자이)",서울특별시 성동구 하왕십리동 999-7 왕십리자이,37.5618878,127.0245829
"서울특별시 종로구 사직로8길 60, 정부서울청사별관 (도렴동)",서울특별시 종로구 도렴동 95번지 1호 정부서울청사별관,37.5736161,126.9750315
"서울특별시 종로구 사직로8길 60, 정부서울청사별관 (도렴동)",서울특별시 종로구 도렴동 95번지 1호 정부서울청사별관,37.5736161,126.9750315
서울특별시 광진구 용마산로22길 82 서울용곡초등학교,서울특별시 광진구 중곡동 176-1 서울용곡초등학교 서울용곡초등학교,37.5668446,127.0885725
"서울특별시 동대문구 고산자로28길 13, 용두문화복지센터 (용두동)",서울특별시 동대문구 용두동 29번지 3호 용두문화복지센터,37.5756792,127.0391961
"서울특별시 마포구 신촌로26길 10, 우리마포복지관(대흥동주민센터) (노고산동)",서울특별시 마포구 노고산동 1-50 우리마포복지관(대흥동주민센터),37.5558553,126.9421804
"서울특별시 서초구 바우뫼로7길 11 (우면동, 우면주공아파트)",서울특별시 서초구 우면동 63번지 우면주공아파트,37.4701977,127.0242323
"서울특별시 서초구 바우뫼로7길 11 (우면동, 우면주공아파트)",서울특별시 서초구 우면동 63번지 우면주공아파트,37.4701977,127.0242323
서울특별시 성북구 보문로 지하 116 (보문동1가),서울특별시 성북구 보문동1가 127-1 보문역 (보문동1가),37.5857826,127.0197201
"서울특별시 성북구 보국문로 지하 88, 북한산보국문역 (정릉동)",서울특별시 성북구 정릉동 289번지 94호 북한산보국문역,37.6124851,127.0082698
서울특별시 성북구 동소문로 지하 102 (동선동4가),서울특별시 성북구 동선동4가 1 성신여대입구역 (동선동4가),37.593104,127.0167851
"서울특별시 성북구 아리랑로 지하 122, 정릉역 (정릉동)",서울특별시 성북구 정릉동 966번지 330호 정릉역,37.609005,127.0077458
"서울특별시 강서구 강서로 348 (내발산동, 우장산힐스테이트)",서울특별시 강서구 내발산동 657 우장산힐스테이트,37.5560749,126.8402252
서울특별시 광진구 아차산로 637 워커힐 아파트,서울특별시 광진구 광장동 145-8 워커힐아파트 워커힐 아파트,37.5505293,127.1065645
"서울특별시 노원구 월계로42길 9, 월계문화복지센터 (월계동)",서울특별시 노원구 월계동 936번지 월계문화복지센터,37.6242606,127.050808
서울특별시 성북구 화랑로13길 144 (하월곡동),서울특별시 성북구 하월곡동 산2-1 성북구민체육관,37.6095813,127.0415166
서울특별시 노원구 광운로13길 9 (월계동),서울특별시 노원구 월계동 393번지 13호,37.6214968,127.0590676
서울특별시 도봉구 노해로70길 96,서울특별시 도봉구 창동 29 서울월천초등학교,37.6478333,127.0519794
"서울특별시 송파구 위례순환로 477 위례포레샤인아파트 (장지동, 위례포레샤인23단지)",서울특별시 송파구 장지동 905 위례포레샤인23단지 위례포레샤인아파트,37.474957,127.1365683
"서울특별시 관악구 은천로 51, 은호빌딩 (봉천동)",서울특별시 관악구 봉천동 937번지 15호 은호빌딩,37.4864847,126.9418041
"서울특별시 은평구 서오릉로 7, 은평세무서 (응암동)",서울특별시 은평구 응암동 84번지 5호 은평세무서,37.602146,126.9263273
"서울특별시 동작구 여의대방로22길 120, 은혜교회 (신대방동)",서울특별시 동작구 신대방동 352-3 은혜교회,37.4979869,126.9266237
서울특별시 강서구 양천로 559 (가양동),서울특별시 강서구 가양동 449-19 가양이마트,37.5579663,126.8622806
"서울특별시 성동구 뚝섬로 379, 이마트 성수점 1층 (성수동2가)",서울특별시 성동구 성수동2가 333번지 16호 이마트 성수점,37.541214,127.0524532
"서울특별시 성동구 뚝섬로 379, 이마트 성수점 3층 (성수동2가)",서울특별시 성동구 성수동2가 333번지 16호 이마트 성수점,37.541214,127.0524532
서울특별시 광진구 아차산로 272 B1 이마트 자양점 (자양동),서울특별시 광진구 자양동 227-7 더샵스타시티 B1 이마트 자양점,37.5378082,127.0726426
서울특별시 강동구 천호대로 1017,서울특별시 강동구 천호동 454-1 이마트,37.5386491,127.1255593
"서울특별시 관악구 난곡로 167 (신림동, 임광관악파크아파트)",서울특별시 관악구 신림동 1727번지 임광관악파크아파트,37.4697163,126.9191099
서울특별시 광진구 뚝섬로37길 28 자양고등학교 (자양동),서울특별시 광진구 자양동 516-2 자양고등학교 자양고등학교,37.5351732,127.0722233
서울특별시 광진구 뚝섬로 569,서울특별시 광진구 자양동 579 우성아파트,37.534414,127.0755843
"서울특별시 광진구 자양번영로 35, 자양3세대종합복지센터 (자양동)",서울특별시 광진구 자양동 581번지 2호 자양3세대종합복지센터,37.5332093,127.0753731
"서울특별시 송파구 올림픽로 25, 서울종합운동장 (잠실동)",서울특별시 송파구 잠실동 10번지 서울종합운동장,37.5164767,127.0730045
"서울특별시 송파구 올림픽로 25, 서울종합운동장 주경기장 (잠실동)",서울특별시 송파구 잠실동 10번지 서울종합운동장,37.5164767,127.0730045
서울특별시 송파구 송파대로 567 잠실주공5단지,서울특별시 송파구 잠실동 27 잠실주공아파트 잠실주공5단지,37.5152509,127.0948813
"서울특별시 동대문구 장한로 119 (장안동, 장안삼성쉐르빌)",서울특별시 동대문구 장안동 371번지 1호 장안삼성쉐르빌 6층,37.571665,127.0698849
서울특별시 마포구 토정로 6 (합정동),서울특별시 마포구 합정동 96-1 절두산순교기념박물관,37.5441234,126.9120963
"서울특별시 동작구 양녕로 283, 상도정동병원 (상도1동)",서울특별시 동작구 상도1동 614번지 1호 상도정동병원,37.5049493,126.9494575
"서울특별시 성북구 아리랑로19가길 21 (정릉동, 정릉꿈에그린)",서울특별시 성북구 정릉동 1038번지 정릉꿈에그린,37.6018409,127.0118668
"서울특별시 광진구 워커힐로 93, 정립회관 (구의동)",서울특별시 광진구 구의동 16-3 정립회관,37.550807,127.0976519
"서울특별시 동대문구 사가정로 207, 삼협메디스빌딩 (장안동)",서울특별시 동대문구 장안동 107번지 8호 삼협메디스빌딩 2층,37.5794009,127.0681532
"서울특별시 중구 소공로 106, 서울 웨스틴조선호텔 (소공동)",서울특별시 중구 소공동 87-1 서울 웨스틴조선호텔,37.5644511,126.9800968
"서울특별시 중구 소공로 106, 서울 웨스틴조선호텔 (소공동)",서울특별시 중구 소공동 87-1 서울 웨스틴조선호텔,37.5644511,126.9800968
"서울특별시 종로구 삼일대로30길 22, 종로세무서 (낙원동)",서울특별시 종로구 낙원동 58번지 8호 종로세무서,37.5740499,126.9884967
"서울특별시 종로구 홍지문길 29, 종로시니어스타워 (홍지동)",서울특별시 종로구 홍지동 69번지 18호 종로시니어스타워,37.6036467,126.9578421
서울특별시 강동구 상암로 251,서울특별시 강동구 명일동 257 고덕주공아파트,37.54792,127.1508907
"서울특별시 중구 소공로 70, 서울중앙우체국청사 (충무로1가)",서울특별시 중구 충무로1가 21번지 1호 서울중앙우체국청사,37.5616382,126.9820695
"서울특별시 중구 다산로 258, 리마크빌 동대문 2,3층 (흥인동)",서울특별시 중구 흥인동 86번지 리마크빌 동대문,37.566049,127.0166539
서울특별시 도봉구 우이천로 200,서울특별시 도봉구 창동 809 창동금용아파트,37.6378476,127.0356752
"서울특별시 도봉구 덕릉로63가길 43 (창동, 창동대우아파트)",서울특별시 도봉구 창동 804번지 창동대우아파트,37.6423727,127.0375422
서울특별시 도봉구 해등로 118 관리실,서울특별시 도봉구 창동 299 상아1차아파트 관리실,37.6540078,127.0423805
서울특별시 도봉구 노해로70길 126 1809동,서울특별시 도봉구 창동 30 주공18단지아파트 1809동,37.6467676,127.0519185
서울특별시 도봉구 노해로70길 126 1806동,서울특별시 도봉구 창동 30 주공18단지아파트 1806동,37.6467676,127.0519185
서울특별시 도봉구 노해로70길 126 1801동,서울특별시 도봉구 창동 30 주공18단지아파트 1801동,37.6467676,127.0519185
서울특별시 도봉구 노해로70길 126 1804동,서울특별시 도봉구 창동 30 주공18단지아파트 1804동,37.6467676,127.0519185
서울특별시 도봉구 노해로70길 126 1803동,서울특별시 도봉구 창동 30 주공18단지아파트 1803동,37.6467676,127.0519185
서울특별시 도봉구 노해로70길 126 1802동,서울특별시 도봉구 창동 30 주공18단지아파트 1802동,37.6467676,127.0519185
서울특별시 도봉구 노해로70길 126 1811동,서울특별시 도봉구 창동 30 주공18단지아파트 1811동,37.6467676,127.0519185
서울특별시 도봉구 노해로70길 37,서울특별시 도봉구 창동 33 주공19단지아파트,37.6507398,127.052611
서울특별시 도봉구 노해로70길 37,서울특별시 도봉구 창동 33 주공19단지아파트,37.6507398,127.052611
서울특별시 도봉구 노해로70길 37,서울특별시 도봉구 창동 33 주공19단지아파트,37.6507398,127.052611
서울특별시 도봉구 노해로70길 37,서울특별시 도봉구 창동 33 주공19단지아파트,37.6507398,127.052611
서울특별시 도봉구 노해로70길 37,서울특별시 도봉구 창동 33 주공19단지아파트,37.6507398,127.052611
서울특별시 도봉구 노해로70길 37,서울특별시 도봉구 창동 33 주공19단지아파트,37.6507398,127.052611
서울특별시 도봉구 노해로70길 37,서울특별시 도봉구 창동 33 주공19단지아파트,37.6507398,127.052611
서울특별시 도봉구 노해로70길 37,서울특별시 도봉구 창동 33 주공19단지아파트,37.6507398,127.052611
서울특별시 도봉구 노해로70길 37,서울특별시 도봉구 창동 33 주공19단지아파트,37.6507398,127.052611
서울특별시 도봉구 노해로70길 37,서울특별시 도봉구 창동 33 주공19단지아파트,37.6507398,127.052611
서울특별시 도봉구 노해로70길 37,서울특별시 도봉구 창동 33 주공19단지아파트,37.6507398,127.052611
서울특별시 도봉구 노해로70길 37,서울특별시 도봉구 창동 33 주공19단지아파트,37.6507398,127.052611
서울특별시 도봉구 해등로12길 44,서울특별시 도봉구 창동 316 주공2단지아파트,37.6527374,127.0423127
서울특별시 도봉구 해등로12길 44,서울특별시 도봉구 창동 316 주공2단지아파트,37.6527374,127.0423127
서울특별시 도봉구 해등로12길 44,서울특별시 도봉구 창동 316 주공2단지아파트,37.6527374,127.0423127
서울특별시 도봉구 해등로12길 44,서울특별시 도봉구 창동 316 주공2단지아파트,37.6527374,127.0423127
서울특별시 도봉구 우이천로4라길 11-14,서울특별시 도봉구 창동 821 초안산신도브래뉴,37.6334333,127.0425663
서울특별시 강동구 올림픽로 702 (천호동),서울특별시 강동구 천호동 360 해공도서관,37.5443828,127.1264297
"서울특별시 강동구 성안로25길 6 (천호동, 삼성아파트)",서울특별시 강동구 천호동 528번지 삼성아파트,37.5387176,127.1352572
"서울특별시 강동구 성안로25길 6 (천호동, 삼성아파트)",서울특별시 강동구 천호동 528번지 삼성아파트,37.5387176,127.1352572
"서울특별시 강동구 성안로25길 6 (천호동, 삼성아파트)",서울특별시 강동구 천호동 528번지 삼성아파트,37.5387176,127.1352572
서울특별시 강동구 천호대로 지하 997 천호역5호선 지하1층 원형광장,서울특별시 강동구 천호대로 지하 997 (천호동),37.53873932,127.1234106
서울특별시 강동구 천호대로 지하 997 8호선,서울특별시 강동구 천호대로 지하 997 (천호동),37.53857437,127.1239099
"서울특별시 동작구 국사봉1길 145, 사회복지법인청운종합복지원 (상도동)",서울특별시 동작구 상도동 290-1 사회복지법인청운종합복지원,37.4961107,126.933376
"서울특별시 강남구 봉은사로50길 6, 청음회관 (역삼동)",서울특별시 강남구 역삼동 681번지 50호 청음회관,37.5089965,127.040438
"서울특별시 노원구 덕릉로60길 222 (월계동, 초안산쌍용스윗닷홈아파트)",서울특별시 노원구 월계동 945번지 초안산쌍용스윗닷홈아파트,37.6305869,127.0444267
"서울특별시 중구 퇴계로 지하 199, 충무로역 3,4호선 (필동2가)","서울특별시 중구 필동2가 16번지 2호 충무로역 3,4호선",37.5612197,126.9943361
"서울특별시 강남구 테헤란로 513, 삼성동 K타워 11층 (삼성동)",서울특별시 강남구 삼성동 158번지 23호 삼성동 K타워,37.5089297,127.0575924
서울특별시 영등포구 선유로 156 코스트코코리아 양평점,서울특별시 영등포구 양평동3가 65 코스트코코리아 양평점,37.5278938,126.8922932
"서울특별시 종로구 세종대로 209 정부서울청사 6층, 7층","서울특별시 종로구 세종로 77-6 정부서울청사(행정자치부, 여성가족부 등) 정부서울청사 6층, 7층",37.574848,126.9754237
"서울특별시 금천구 시흥대로73길 67, 7층 7병동A병실 (시흥동)",서울특별시 금천구 시흥동 1031 7층 7병동A병실,37.4560181,126.8958834
"서울특별시 강서구 마곡중앙로 59-21, 에이스타워Ⅱ 3층 (마곡동)",서울특별시 강서구 마곡동 798-5 에이스타워Ⅱ,37.5589775,126.8242893
"서울특별시 강남구 도산대로17길 45, 학수정노인복지센터 (신사동)",서울특별시 강남구 신사동 544번지 29호 학수정노인복지센터,37.5211917,127.0234556
서울특별시 강서구 하늘길 76,서울특별시 강서구 과해동 676,37.5618268,126.7986787
서울특별시 강서구 하늘길 76,서울특별시 강서구 과해동 676,37.5618268,126.7986787
서울특별시 강서구 하늘길 76,서울특별시 강서구 과해동 676,37.5618268,126.7986787
"서울특별시 강서구 하늘길 76, 한국공항공사 서울지역본부 (과해동)",서울특별시 강서구 과해동 676,37.5618268,126.7986787
"서울특별시 강서구 하늘길 76, 한국공항공사 서울지역본부 (과해동)",서울특별시 강서구 과해동 676,37.5618268,126.7986787
"서울특별시 강서구 하늘길 76, 한국공항공사 서울지역본부 (과해동)",서울특별시 강서구 과해동 676,37.5618268,126.7986787
"서울특별시 강서구 하늘길 76, 한국공항공사 서울지역본부 (과해동)",서울특별시 강서구 과해동 676,37.5618268,126.7986787
서울특별시 강서구 하늘길 76,서울특별시 강서구 과해동 676,37.5618268,126.7986787
서울특별시 강서구 하늘길 76,서울특별시 강서구 과해동 676,37.5618268,126.7986787
"서울특별시 강서구 하늘길 76, 한국공항공사 서울지역본부 (과해동)",서울특별시 강서구 과해동 676,37.5618268,126.7986787
서울특별시 강서구 하늘길 76,서울특별시 강서구 과해동 676,37.5618268,126.7986787
"서울특별시 강서구 하늘길 76, 한국공항공사 서울지역본부 (과해동)",서울특별시 강서구 과해동 676,37.5618268,126.7986787
"서울특별시 강서구 하늘길 76, 한국공항공사 서울지역본부 (과해동)",서울특별시 강서구 과해동 676,37.5618268,126.7986787
서울특별시 강서구 하늘길 76,서울특별시 강서구 과해동 676,37.5618268,126.7986787
서울특별시 강서구 하늘길 76,서울특별시 강서구 과해동 676,37.5618268,126.7986787
"서울특별시 강서구 하늘길 76, 한국공항공사 서울지역본부 (과해동)",서울특별시 강서구 과해동 676,37.5618268,126.7986787
서울특별시 강서구 하늘길 76,서울특별시 강서구 과해동 676,37.5618268,126.7986787
"서울특별시 강서구 하늘길 76, 한국공항공사 서울지역본부 (과해동)",서울특별시 강서구 과해동 676,37.5618268,126.7986787
서울특별시 강서구 하늘길 76,서울특별시 강서구 과해동 676,37.5618268,126.7986787
"서울특별시 강서구 하늘길 76, 한국공항공사 서울지역본부 (과해동)",서울특별시 강서구 과해동 676,37.5618268,126.7986787
"서울특별시 노원구 화랑로 815, 삼육고등학교 (공릉동)",서울특별시 노원구 공릉동 26번지 19호 삼육대학교,37.6297429,127.0953701
"서울특별시 노원구 화랑로 815, 삼육고등학교 (공릉동)",서울특별시 노원구 공릉동 26번지 19호 삼육대학교,37.6297429,127.0953701
서울특별시 노원구 화랑로 815 한국삼육고등학교 (공릉동),서울특별시 노원구 공릉동 26-19 삼육대학교 한국삼육고등학교,37.6446056,127.1052795
서울특별시 노원구 화랑로 815 한국삼육고등학교 (공릉동),서울특별시 노원구 공릉동 26-19 삼육대학교 한국삼육고등학교,37.6446056,127.1052795
"서울특별시 영등포구 경인로 846, 영등포 민자역사 (영등포동)",서울특별시 영등포구 영등포동 618번지 496호 영등포 민자역사,37.5164993,126.9072295
"서울특별시 영등포구 경인로 846, 영등포 민자역사 (영등포동)",서울특별시 영등포구 영등포동 618번지 496호 영등포 민자역사,37.5164993,126.9072295
"서울특별시 영등포구 경인로 846, 영등포 민자역사 (영등포동)",서울특별시 영등포구 영등포동 618번지 496호 영등포 민자역사,37.5164993,126.9072295
"서울특별시 영등포구 경인로 846, 영등포 민자역사 (영등포동)",서울특별시 영등포구 영등포동 618번지 496호 영등포 민자역사,37.5164993,126.9072295
"서울특별시 영등포구 경인로 846, 영등포 민자역사 (영등포동)",서울특별시 영등포구 영등포동 618번지 496호 영등포 민자역사,37.5164993,126.9072295
"서울특별시 성동구 독서당로 156 관리사무소 (옥수동, 한남하이츠아파트)",서울특별시 성동구 옥수동 220-1 한남하이츠아파트 관리사무소,37.539745,127.014156
"서울특별시 관악구 장군봉길 46, 봉천동사회복지시설 (봉천동)",서울특별시 관악구 봉천동 1531-27 봉천동사회복지시설,37.4809871,126.9392863
"서울특별시 금천구 가산디지털2로 53, 한라시그마밸리 (가산동)",서울특별시 금천구 가산동 345-90 한라시그마밸리,37.4730172,126.8811687
"서울특별시 마포구 월드컵로5길 11, 합정동주민센터 (합정동)",서울특별시 마포구 합정동 473번지 합정동주민센터,37.5510568,126.9118671
"서울특별시 구로구 서해안로 2102, 솔보프라자 (항동)",서울특별시 구로구 항동 119-6 솔보프라자,37.4800802,126.823526
"서울특별시 강남구 영동대로 737, 리베라호텔 (청담동)",서울특별시 강남구 청담동 53번지 7호 리베라호텔,37.5245867,127.0530305
"서울특별시 강동구 아리수로93길 41, 홀트강동복지관 (강일동)",서울특별시 강동구 강일동 665번지 3호 홀트강동복지관,37.5676649,127.1719943
서울특별시 성북구 성북로14가길 23 (성북동),서울특별시 성북구 성북동 151 홍익대학교부속중고등학교 (성북동),37.5944226,127.0034081
"서울특별시 강서구 초록마을로15길 81, 화곡배수지체육공원 (화곡동)",서울특별시 강서구 화곡동 산 22-80 화곡배수지체육공원,37.5418909,126.8553372
서울특별시 종로구 사직로9길 15-32 황학정 국궁전시관,서울특별시 종로구 사직동 산1-1 황학정 국궁전시관,37.5778473,126.9642713
"서울특별시 도봉구 우이천로 432, 효문중,고등학교 (쌍문동)","서울특별시 도봉구 쌍문동 468 효문중,고등학교",37.6526614,127.0183261
서울특별시 동작구 서달로 123 (흑석동),서울특별시 동작구 흑석동 232-55,37.5042597,126.9595063
"서울특별시 서초구 헌릉로8길 10-12 신원동,힐스테이트서초젠트리스","서울특별시 서초구 신원동 412-5 힐스테이트서초젠트리스 신원동,힐스테이트서초젠트리스",37.4559523,127.0581198
"서울특별시 동대문구 홍릉로10길 48 (청량리동, 홍릉동부아파트)",서울특별시 동대문구 청량리동 212 홍릉동부아파트,37.5861654,127.04603
서울특별시 동대문구 장안벚꽃로1길 7 힐스테이트 1006동 맞은편 뚝방길 작은도서관,서울특별시 동대문구 장안동 329-2 장안힐스테이트 힐스테이트 1006동 맞은편 뚝방길 작은도서관,37.5759749,127.0753766
"서울특별시 양천구 목동동로 37, 신정7동주민센터 (신정동)",서울특별시 양천구 신정동 324번지 5호 신정7동주민센터,37.5152291,126.8591252
"서울특별시 양천구 곰달래로1길 38, 신월1동주민센터 (신월동)",서울특별시 양천구 신월동 135번지 18호 신월1동주민센터,37.5330972,126.831326
서울특별시 양천구 곰달래로2길 16 (신월동) 성원아파트,서울특별시 양천구 신월동 222-7 성원아파트,37.5282122,126.8339527
"서울특별시 양천구 신정이펜2로 55 (신정동, 신정이펜하우스2단지)",서울특별시 양천구 신정동 1322번지 신정이펜하우스2단지,37.5161251,126.8301486
"서울특별시 양천구 목동중앙본로 120, 목2동주민센터 (목동)",서울특별시 양천구 목동 530번지 6호 목2동주민센터,37.5464631,126.8717062
"서울특별시 서초구 서운로 197 (서초동, 롯데캐슬클래식아파트)",서울특별시 서초구 서초동 1312번지 3호 롯데캐슬클래식아파트,37.5001766,127.0199757
"서울특별시 금천구 한내로 69-15 (독산동, 주공13단지아파트)",서울특별시 금천구 독산동 1088번지 1호 주공13단지아파트,37.4600891,126.886482
"서울특별시 금천구 한내로 69-15, 주공13단지아파트 (독산동, 주공13단지아파트)",서울특별시 금천구 독산동 1088번지 1호 주공13단지아파트,37.4600891,126.886482
"서울특별시 금천구 한내로 69-15 (독산동, 주공13단지아파트)","서울특별시 금천구 한내로 69-15, 주공13단지아파트 (독산동, 주공13단지아파트)",37.4577246,126.8873951
서울특별시 동대문구 약령중앙로 26 (제기동),서울특별시 동대문구 제기동 1082 서울한방진흥센터,37.5806721,127.0376428
서울특별시 동대문구 휘경로11길 52,서울특별시 동대문구 이문동 84-1 중앙하이츠빌,37.5971147,127.0646873
서울특별시 동대문구 정릉천동로 16,서울특별시 동대문구 용두동 791 용두두산위브,37.5734458,127.0362528
서울특별시 동대문구 회기로8길 20,서울특별시 동대문구 제기동 1212-1 한신아파트,37.5903743,127.0397955
서울특별시 동대문구 답십리로56길 21-1,서울특별시 동대문구 답십리동 990-1 두산아파트,37.569255,127.0593426
서울특별시 동대문구 한천로58길 135,서울특별시 동대문구 이문동 54-1 현대아파트,37.6022761,127.0706679
"서울특별시 동대문구 이문로54길 16 (이문동, 이문e편한세상아파트)",서울특별시 동대문구 이문동 225-1 이문e편한세상아파트,37.604807,127.0629977
"서울특별시 동대문구 답십리로41길 7 (답십리동, 답십리대우아파트)",서울특별시 동대문구 답십리동 111-1 답십리대우아파트,37.5731747,127.054522
서울특별시 동대문구 전농로16길 51 (전농동 688-1),서울특별시 동대문구 전농동 688 래미안아름숲 (전농동 688-1),37.5809798,127.0610871
서울특별시 동대문구 전농로 190,서울특별시 동대문구 전농동 155-1 전농동삼성아파트,37.5812992,127.0556252
서울특별시 동대문구 답십리로60길 38,서울특별시 동대문구 답십리동 808 대림아파트,37.5709293,127.0637326
서울특별시 동대문구 한천로37길 33,서울특별시 동대문구 답십리동 1000 래미안엘파인아파트,37.5758775,127.0653207
"서울특별시 동대문구 답십리로57길 53 (답십리동, 답십리청솔우성아파트)",서울특별시 동대문구 답십리동 80-1 답십리청솔우성아파트,37.5751663,127.0611525
서울특별시 동대문구 한천로 329,서울특별시 동대문구 휘경동 367-1 휘경2동 주민센터,37.5900949,127.0685931
서울특별시 동대문구 신이문로 27-5,서울특별시 동대문구 이문동 237-1 이문2동 주민센터,37.6033395,127.0650396
서울특별시 동대문구 회기로25길 12-1,서울특별시 동대문구 회기동 347-8 회기동 주민센터,37.5908239,127.0551763
서울특별시 동대문구 한천로18길 52,서울특별시 동대문구 장안동 395-3 장안1동 주민센터,37.5678207,127.0665342
서울특별시 동대문구 사가정로 253 서울지방경찰청 제2기동단,서울특별시 동대문구 장안동 284-5 서울지방경찰청 제2기동단,37.5796289,127.0729191
서울특별시 동대문구 한천로58길 81-49,서울특별시 동대문구 이문동 189 이문체육센터,37.6023181,127.0690385
서울특별시 동대문구 답십리로 210-3,서울특별시 동대문구 답십리동 2-294 동대문구체육관,37.5722951,127.0639906
"서울특별시 서초구 신반포로 176, 센트럴시티 (반포동)",서울특별시 서초구 반포동 19-3 센트럴시티,37.5043628,127.0036394
"서울특별시 서초구 신반포로 176, 센트럴시티 (반포동)",서울특별시 서초구 반포동 19-3 센트럴시티,37.5043628,127.0036394
"서울특별시 서초구 신반포로 176, 센트럴시티 (반포동)",서울특별시 서초구 반포동 19-3 센트럴시티,37.5043628,127.0036394
"서울특별시 서초구 신반포로 176, 센트럴시티 (반포동)",서울특별시 서초구 반포동 19-3 센트럴시티,37.5043628,127.0036394
"서울특별시 서초구 신반포로 176, 센트럴시티 (반포동)",서울특별시 서초구 반포동 19-3 센트럴시티,37.5043628,127.0036394
서울특별시 도봉구 도봉로136가길 73,서울특별시 도봉구 창동 826 북한산한신휴플러스아파트,37.6557245,127.0428805
"서울특별시 도봉구 노해로 313, 북부교육청 (창동)",서울특별시 도봉구 창동 327-1 북부교육청,37.6518271,127.0433544
서울특별시 영등포구 당산로 123 영등포구보건소,서울특별시 영등포구 당산로 123 영등포구보건소,37.526436,126.896004
"서울특별시 금천구 시흥대로73길 70, 금천구청종합청사 (시흥동)",서울특별시 금천구 시흥동 1020 금천구청종합청사,37.4568182,126.8954093
서울특별시 구로구 천왕로1길 11 (천왕동),서울특별시 구로구 천왕동 172-2 천왕초등학교,37.481382,126.8370091
서울특별시 송파구 삼학사로 53 석촌고분역 (삼전동),서울특별시 송파구 삼전동 180-8 태영빌딩 석촌고분역,37.5020974,127.0966801
"서울특별시 구로구 천왕로1길 11, 천왕초등학교 (천왕동)",서울특별시 구로구 천왕동 273번지 2호 천왕초등학교,37.4803706,126.8382141
서울특별시 서대문구 독립문로 27,서울특별시 서대문구 독립문로 27,37.5696052,126.9613126
서울특별시 강동구 고덕로80길 111,서울특별시 강동구 상일동 131-1 상일동주민센터,37.5515919,127.1655158
서울특별시 용산구 서빙고로 17 (한강로3가),서울특별시 용산구 한강로3가 63-70,37.5259057,126.967659
서울특별시 강동구 천호대로193길 37,서울특별시 강동구 길동 400 길동우성아파트,37.5371709,127.1442038
서울특별시 강동구 천호대로193길 37,서울특별시 강동구 길동 400 길동우성아파트,37.5371709,127.1442038
"서울특별시 동대문구 휘경로 60 (휘경동, 휘경SK VIEW 아파트)",서울특별시 동대문구 휘경동 128번지 12호 휘경SK VIEW 아파트,37.5931081,127.0669665
서울특별시 광진구 천호대로 지하 550 .,서울특별시 광진구 능동 275-5 .,37.556735,127.0805476
서울특별시 마포구 월드컵북로44길 40,서울특별시 마포구 상암동 17-2 마포주민편익시설,37.5767405,126.8954189
"서울특별시 강북구 한천로 897, 강북보건소,번2동 주민센터 (번동)","서울특별시 강북구 번동 232번지 강북보건소,번2동 주민센터",37.6322165,127.0388319
"서울특별시 강북구 한천로115길 20 (번동, 번동주공5단지아파트)",서울특별시 강북구 번동 230번지 번동주공5단지아파트,37.6330933,127.0362269
"서울특별시 강북구 오현로 208 (번동, 번동주공아파트)",서울특별시 강북구 번동 237번지 번동주공아파트,37.6290463,127.0418875
"서울특별시 강북구 한천로105길 24 (번동, 번동2단지주공아파트)",서울특별시 강북구 번동 241번지 번동2단지주공아파트,37.6265726,127.0453474
"서울특별시 강북구 삼양로19길 113 (미아동, 삼각산아이원아파트)",서울특별시 강북구 미아동 1357번지 삼각산아이원아파트,37.615229,127.0181311
"서울특별시 강북구 한천로 897, 강북보건소,번2동 주민센터 (번동)","서울특별시 강북구 한천로 897, 강북보건소,번2동 주민센터 (번동)",37.6323588,127.0387953
서울특별시 마포구 마포대로 183,서울특별시 마포구 아현동 618-1 서울마포경찰서,37.5507471,126.9542648
"서울특별시 동대문구 답십리로 210-30 (답십리동, 한신아파트)","서울특별시 동대문구 답십리동 42 한신아파트 (답십리동, 한신아파트) 노인정 입구",37.5708179,127.0625854
"서울특별시 양천구 목동남로 106-23, 어린이교통공원 (신정동)",서울특별시 양천구 신정동 163-55 어린이교통안전교육장,37.5087814,126.8697266
서울특별시 강북구 삼각산로 115 수유2파출소 (수유동),서울특별시 강북구 수유동 605-512 수유2파출소,37.6409243,127.0171159
"서울특별시 은평구 은평로 220 (응암동, 녹번역e편한세상캐슬아파트)",서울특별시 은평구 응암동 36 녹번역e편한세상캐슬아파트,37.598828,126.9326378
"서울특별시 양천구 신정이펜1로 20, 서울특별시서남병원 (신정동)",서울특별시 양천구 신정동 1320번지 7호 서울특별시서남병원,37.512746,126.8323147
"서울특별시 서대문구 통일로 113, 서대문경찰서 (미근동)",서울특별시 서대문구 미근동 165번지 서대문경찰서,37.5648833,126.966879
"서울특별시 양천구 목동동로8길 70, 목일중학교 (신정동)",서울특별시 양천구 신정동 330번지 2호 목일중학교,37.5135389,126.8719615
서울특별시 동대문구 천호대로 421 지혜병원,서울특별시 동대문구 장안동 464-3 지혜병원,37.5617486,127.0659485
서울특별시 강동구 상암로 260,서울특별시 강동구 상암로260,37.546366,127.1513427
"서울특별시 서초구 서초대로74길 11, 삼성전자빌딩 B8층 (서초동)",서울특별시 서초구 서초동 1320-10 삼성전자빌딩,37.4966999,127.026853
"서울특별시 서초구 서초대로74길 11, 삼성전자빌딩 B8층 (서초동)",서울특별시 서초구 서초동 1320-10 삼성전자빌딩,37.4966999,127.026853
"서울특별시 서초구 서초대로74길 11, 삼성전자빌딩 B7층 (서초동)",서울특별시 서초구 서초동 1320-10 삼성전자빌딩,37.4966999,127.026853
"서울특별시 서초구 서초대로74길 11, 삼성전자빌딩 B6층 (서초동)",서울특별시 서초구 서초동 1320-10 삼성전자빌딩,37.4966999,127.026853
"서울특별시 서초구 서초대로74길 11, 삼성전자빌딩 B5층 (서초동)",서울특별시 서초구 서초동 1320-10 삼성전자빌딩,37.4966999,127.026853
"서울특별시 서초구 서초대로74길 11, 삼성전자빌딩 B3층 (서초동)",서울특별시 서초구 서초동 1320-10 삼성전자빌딩,37.4966999,127.026853
"서울특별시 서초구 서초대로74길 11, 삼성전자빌딩 B2층 (서초동)",서울특별시 서초구 서초동 1320-10 삼성전자빌딩,37.4966999,127.026853
"서울특별시 서초구 서초대로74길 11, 삼성전자빌딩 B1층 (서초동)",서울특별시 서초구 서초동 1320-10 삼성전자빌딩,37.4966999,127.026853
"서울특별시 서초구 서초대로74길 11, 삼성전자빌딩 B1층 (서초동)",서울특별시 서초구 서초동 1320-10 삼성전자빌딩,37.4966999,127.026853
"서울특별시 서초구 서초대로74길 11, 삼성전자빌딩 1층 (서초동)",서울특별시 서초구 서초동 1320-10 삼성전자빌딩,37.4966999,127.026853
"서울특별시 서초구 서초대로74길 11, 삼성전자빌딩 1층 (서초동)",서울특별시 서초구 서초동 1320-10 삼성전자빌딩,37.4966999,127.026853
"서울특별시 서초구 서초대로74길 11, 삼성전자빌딩 1층 (서초동)",서울특별시 서초구 서초동 1320-10 삼성전자빌딩,37.4966999,127.026853
"서울특별시 서초구 서초대로74길 11, 삼성전자빌딩 3층 (서초동)",서울특별시 서초구 서초동 1320-10 삼성전자빌딩,37.4966999,127.026853
"서울특별시 서초구 서초대로74길 11, 삼성전자빌딩 5층 (서초동)",서울특별시 서초구 서초동 1320-10 삼성전자빌딩,37.4966999,127.026853
"서울특별시 서초구 서초대로74길 11, 삼성전자빌딩 5층 (서초동)",서울특별시 서초구 서초동 1320-10 삼성전자빌딩,37.4966999,127.026853
"서울특별시 서초구 서초대로74길 11, 삼성전자빌딩 6층 (서초동)",서울특별시 서초구 서초동 1320-10 삼성전자빌딩,37.4966999,127.026853
"서울특별시 서초구 서초대로74길 11, 삼성전자빌딩 19층 (서초동)",서울특별시 서초구 서초동 1320-10 삼성전자빌딩,37.4966999,127.026853
"서울특별시 서초구 서초대로74길 11, 삼성전자빌딩 19층 (서초동)",서울특별시 서초구 서초동 1320-10 삼성전자빌딩,37.4966999,127.026853
"서울특별시 서초구 서초대로74길 11, 삼성전자빌딩 22층 (서초동)",서울특별시 서초구 서초동 1320-10 삼성전자빌딩,37.4966999,127.026853
"서울특별시 서초구 서초대로74길 11, 삼성전자빌딩 26층 (서초동)",서울특별시 서초구 서초동 1320-10 삼성전자빌딩,37.4966999,127.026853
"서울특별시 서초구 서초대로74길 11, 삼성전자빌딩 26층 (서초동)",서울특별시 서초구 서초동 1320-10 삼성전자빌딩,37.4966999,127.026853
"서울특별시 서초구 서초대로74길 11, 삼성전자빌딩 27층 (서초동)",서울특별시 서초구 서초동 1320-10 삼성전자빌딩,37.4966999,127.026853
"서울특별시 서초구 서초대로74길 11, 삼성전자빌딩 28층 (서초동)",서울특별시 서초구 서초동 1320-10 삼성전자빌딩,37.4966999,127.026853
"서울특별시 서초구 서초대로74길 11, 삼성전자빌딩 30층 (서초동)",서울특별시 서초구 서초동 1320-10 삼성전자빌딩,37.4966999,127.026853
"서울특별시 서초구 서초대로74길 11, 삼성전자빌딩 31층 (서초동)",서울특별시 서초구 서초동 1320-10 삼성전자빌딩,37.4966999,127.026853
"서울특별시 서초구 서초대로74길 11, 삼성전자빌딩 38층 (서초동)",서울특별시 서초구 서초동 1320-10 삼성전자빌딩,37.4966999,127.026853
"서울특별시 서초구 서초대로74길 11, 삼성전자빌딩 39층 (서초동)",서울특별시 서초구 서초동 1320-10 삼성전자빌딩,37.4966999,127.026853
"서울특별시 서초구 서초대로74길 11, 삼성전자빌딩 39층 (서초동)",서울특별시 서초구 서초동 1320-10 삼성전자빌딩,37.4966999,127.026853
"서울특별시 서초구 서초대로74길 11, 삼성전자빌딩 41층 (서초동)",서울특별시 서초구 서초동 1320-10 삼성전자빌딩,37.4966999,127.026853
"서울특별시 서초구 서초대로74길 11, 삼성전자빌딩 42층 (서초동)",서울특별시 서초구 서초동 1320-10 삼성전자빌딩,37.4966999,127.026853
"서울특별시 서초구 서초대로74길 11, 삼성전자빌딩 42층 (서초동)",서울특별시 서초구 서초동 1320-10 삼성전자빌딩,37.4966999,127.026853
"서울특별시 서초구 서초대로74길 11, 삼성전자빌딩 B4층 (서초동)",서울특별시 서초구 서초동 1320-10 삼성전자빌딩,37.4966999,127.026853
"서울특별시 서초구 서초대로74길 11, 삼성전자빌딩 PH2층 (서초동)",서울특별시 서초구 서초동 1320-10 삼성전자빌딩,37.4966999,127.026853
서울특별시 동대문구 천호대로 145,서울특별시 동대문구 용두동 39-9 동대문구청,37.5744293,127.039763
서울특별시 강북구 도봉로 127 미아지구대 (미아동),서울특별시 강북구 미아동 327-1 미아지구대 미아지구대,37.6201638,127.0283051
서울특별시 강북구 도봉로 127 미아지구대 (미아동),서울특별시 강북구 미아동 327-1 미아지구대 미아지구대,37.6201638,127.0283051
서울특별시 강북구 도봉로 127 미아지구대 (미아동),서울특별시 강북구 미아동 327-1 미아지구대 미아지구대,37.6201638,127.0283051
서울특별시 강북구 도봉로 127 미아지구대 (미아동),서울특별시 강북구 미아동 327-1 미아지구대 미아지구대,37.6201638,127.0283051
서울특별시 강북구 도봉로 127 미아지구대 (미아동),서울특별시 강북구 미아동 327-1 미아지구대 미아지구대,37.6201638,127.0283051
"서울특별시 동대문구 이문로 136 지하1층 이마트이문점 (이문동, 이문동 웰츠타워)",서울특별시 동대문구 이문동 292-10 이문동 웰츠타워 지하1층 이마트이문점,37.5985079,127.0619038
서울특별시 구로구 고척로27바길 19 오류중학교 (고척동),서울특별시 구로구 고척동 243 오류중학교 오류중학교,37.5075378,126.8461313
"서울특별시 금천구 시흥대로73길 70, 금천구청종합청사 (시흥동)",서울특별시 금천구 시흥동 1020 금천구청종합청사,37.4568182,126.8954093
"서울특별시 금천구 시흥대로73길 70, 금천구청종합청사 (시흥동)",서울특별시 금천구 시흥동 1020번지 금천구청종합청사,37.4568182,126.8954093
"서울특별시 강북구 오현로31길 89 오동공원 현대홈타운 (번동, 오동공원 현대홈타운)",서울특별시 강북구 번동 760 오동공원 현대홈타운 오동공원 현대홈타운,37.6315129,127.03554
서울특별시 강북구 노해로 50 1층 교회 로비,서울특별시 강북구 수유동 221-49 성실교회 1층 교회 로비,37.6401394,127.022918
서울특별시 강북구 덕릉로42길 49 오동근린공원 실내배드민턴장 (번동),서울특별시 강북구 번동 산17-11 오동근린공원 실내배드민턴장,37.6330246,127.0322272
"서울특별시 강북구 삼양로173길 120, 국립공원관리사무소 (우이동)",서울특별시 강북구 우이동 265번지 국립공원관리사무소,37.6623911,127.0082205
서울특별시 강북구 오현로 187-25 강북구민운동장,서울특별시 강북구 번동 317 강북구민운동장 강북구민운동장,37.6295282,127.0375324
서울특별시 강북구 삼양로63길 33 서울효정학교 (미아동),서울특별시 강북구 미아동 791-1252 서울효정학교,37.6271269,127.0162225
서울특별시 강북구 도봉로 지하 338 수유역 (수유동),서울특별시 강북구 수유동 140 수유역 수유역,37.6402922,127.0242246
"서울특별시 강북구 오패산로 290-1, 강북보훈회관 (미아동)",서울특별시 강북구 미아동 198번지 55호 강북보훈회관,37.627507,127.028256
"서울특별시 강북구 도봉로89길 13, 강북구청 (수유동)",서울특별시 강북구 수유동 192-59 강북구청,37.6395417,127.025491
서울특별시 구로구 구로동로20길 6 (구로동),서울특별시 구로구 구로동 736-3,37.4888084,126.8848109
"서울특별시 양천구 중앙로 지하 261, 신정네거리역 (신정동)",서울특별시 양천구 신정동 1231번지 신정네거리역,37.5183521,126.8536102
"서울특별시 동대문구 경희대로 26, 경희대학교,경희초,중,고,여자중고등학교 (회기동)","서울특별시 동대문구 회기동 1번지 5호 경희대학교,경희초,중,고,여자중고등학교",37.5964932,127.0525006
"서울특별시 강동구 아리수로78길 43-12, 고덕2동주민센터 (고덕동)",서울특별시 강동구 고덕동 226-4 고덕2동주민센터,37.5605592,127.1643896
"서울특별시 강동구 양재대로138길 37, 명일1동주민센터·명일파출소 (명일동)",서울특별시 강동구 명일동 327-5 명일1동주민센터·명일파출소,37.5497181,127.1459977
서울특별시 중랑구 신내로21길 115-14(신내동),서울특별시 중랑구 신내동 산144-2,37.6112239,127.089503
"서울특별시 동작구 동작대로29길 119 (사당동, 극동아파트)","서울특별시 동작구 사당동 105 극동아파트 (사당동, 극동아파트)",37.4896397,126.9759591
"서울특별시 강동구 양재대로156길 123, 고덕1동주민센터 (고덕동)",서울특별시 강동구 고덕동 691-6 고덕1동주민센터,37.5572831,127.1515464
서울특별시 강동구 고덕로 295-45,서울특별시 강동구 고덕동 298,37.5576786,127.1587718
서울특별시 강동구 양재대로 1571,서울특별시 강동구 천호동 42 홈플러스 강동점,37.5457197,127.142281
서울특별시 강동구 구천면로 189,서울특별시 강동구 천호동 563 2001아울렛 천호점,37.5412753,127.125912
서울특별시 강동구 천호2동 현대백화점,서울특별시 강동구 천호2동 현대백화점,37.53897178,127.1244567
서울특별시 강동구 아리수로94길 72,서울특별시 강동구 강일동 701 강일리버파크8단지아파트,37.5615243,127.1768789
서울특별시 강동구 아리수로97길 68,서울특별시 강동구 강일동 668 강일리버파크2단지아파트,37.5693769,127.1762782
서울특별시 강동구 아리수로93가길 25,서울특별시 강동구 강일동 665 강일리버파크1단지아파트,37.5676649,127.1719943
서울특별시 강동구 동남로 620,서울특별시 강동구 둔촌동 산14-1 일자산자연공원제2체육관,37.5293586,127.1497127
서울특별시 강동구 천호대로206길 87,서울특별시 강동구 둔촌동 562-9 강동그린웨이 가족캠핑장 관리사무소,37.5358659,127.1540896
서울특별시 강동구 천중로17길 42-16,서울특별시 강동구 천중로17길 42-16,37.546221,127.1319202
"서울특별시 강동구 고덕로 201, 시립서울장애인종합복지관 (고덕동)",서울특별시 강동구 고덕동 317번지 24호 시립서울장애인종합복지관,37.5561744,127.1452203
서울특별시 강동구 성안로13길 56,서울특별시 강동구 성내동 508-1 성내종합사회복지관,37.5322337,127.129388
"서울특별시 강동구 양재대로 1458, 길동빌딩 3,6층 (길동)",서울특별시 강동구 길동 411-4 길동빌딩,37.5359394,127.1396141
서울특별시 강동구 동남로71길 32-5,서울특별시 강동구 명일동 48-10 강동노인종합복지관,37.5523388,127.1542936
서울특별시 강동구 고덕로 199,서울특별시 강동구 고덕동 317-23 시립고덕양로원,37.5555345,127.147096
"서울특별시 중랑구 용마산로115길 109 (망우동, 한일써너스빌리젠시2단지)",서울특별시 중랑구 망우동 495 한일써너스빌리젠시2단지,37.5976697,127.0944176
"서울특별시 중랑구 신내로16길 33 (신내동, 신내동 의료안심주택)",서울특별시 중랑구 신내동 315-1 신내동 의료안심주택,37.6140828,127.0979253
서울특별시 강동구 상암로3길 28,서울특별시 강동구 암사동 503-8 암사2동주민센터,37.5517049,127.1272892
서울특별시 강동구 강일동 736 능골 근린공원 내,서울특별시 강동구 강일동 736 능골 근린공원 내,37.556466,127.1745371
서울특별시 강동구 고덕로 137,서울특별시 강동구 암사동 414-19 암사3동주민센터,37.5549758,127.1408336
서울특별시 강동구 암사길 57,서울특별시 강동구 암사동 474-8 개나리어린이집,37.5521577,127.1357444
서울특별시 강동구 올림픽로 875,서울특별시 강동구 암사동 139-2 서울 암사동 유적,37.5609733,127.1306637
서울특별시 강동구 성내로6길 16,서울특별시 강동구 성내동 556-1 강동어린이회관,37.5291687,127.1224316
서울특별시 강동구 성내로 55,서울특별시 강동구 성내동 541-1 강동구의회의사당,37.528682,127.126745
서울특별시 강동구 성내로 25,서울특별시 강동구 성내동 540 강동구청,37.5300896,127.1236817
서울특별시 강동구 올림픽로98가길 57,서울특별시 강동구 암사동 493-13 암사제1동주민센터,37.55148,127.1326955
"서울특별시 중랑구 중랑천로 146, 중화지구대 (중화동)",서울특별시 중랑구 중화동 326-114 중화지구대,37.5980014,127.0722
"서울특별시 중랑구 면목로 238, 중랑구민회관 (면목동)",서울특별시 중랑구 면목동 378번지 4호 중랑구민회관,37.574382,127.08669
"서울특별시 중랑구 동일로138길 28, 중화1동통합경로당 (중화동)",서울특별시 중랑구 중화동 37번지 4호 중화1동통합경로당,37.6035619,127.0815821
서울특별시 중랑구 신내로 56 (신내동),서울특별시 중랑구 신내동 572번지 2호,37.6047773,127.096328
"서울특별시 중랑구 신내로 115 (신내동, 신내10단지신내아파트)",서울특별시 중랑구 신내동 660번지 신내10단지신내아파트,37.6092694,127.0946114
"서울특별시 중랑구 봉화산로 153 (상봉동, 신내12단지신내아파트)",서울특별시 중랑구 상봉동 481번지 신내12단지신내아파트,37.6053662,127.0911463
서울특별시 강동구 동남로 870,서울특별시 강동구 상일동 477 강동아트센터,37.5510531,127.1575728
서울특별시 강동구 상암로 168,서울특별시 강동구 상암로168,37.5457344,127.1412375
"서울특별시 중랑구 용마산로 327, 용마산경로당 (면목동)",서울특별시 중랑구 면목동 469-9 용마산경로당,37.5811673,127.09312
"서울특별시 중랑구 용마공원로5가길 36, 샛별경로당 (망우동)",서울특별시 중랑구 망우동 421-36 샛별경로당,37.5930154,127.1022527
"서울특별시 중랑구 봉화산로43길 9, 중랑노인복지회관 (상봉동)",서울특별시 중랑구 상봉동 303-48 중랑노인복지회관,37.6037392,127.0873307
"서울특별시 중랑구 용마산로129나길 25, 구립 피울경로당 (신내동)",서울특별시 중랑구 신내동 417-2 구립 피울경로당,37.6061678,127.0996785
"서울특별시 중랑구 용마산로139나길 47, 새우개경로당 (신내동)",서울특별시 중랑구 신내동 278-12 새우개경로당,37.6177006,127.1023651
"서울특별시 중랑구 봉우재로65가길 18, 안산경로당 (망우동)",서울특별시 중랑구 망우동 461-32 안산경로당,37.5957537,127.0981728
"서울특별시 중랑구 용마산로115나길 8, 우림경로당 (망우동)",서울특별시 중랑구 망우동 492-6 우림경로당,37.5976673,127.0966529
"서울특별시 중랑구 망우로73길 24-8, 망우본동경로당 (망우동)",서울특별시 중랑구 망우동 342-50 망우본동경로당,37.6016019,127.1036673
"서울특별시 중랑구 중랑천로 252-1, 구립학수경로당 (묵동)",서울특별시 중랑구 묵동 247-101 구립학수경로당,37.607221,127.0735344
"서울특별시 중랑구 동일로154길 38, 화랑어린이집 (묵동)",서울특별시 중랑구 묵동 122-174 화랑어린이집,37.6090707,127.0803391
"서울특별시 중랑구 공릉로2라길 26, 묵동경로당 (묵동)",서울특별시 중랑구 묵동 121-310 묵동경로당,37.6133033,127.0817207
"서울특별시 중랑구 봉화산로3길 40-5, 봉화경로당 (중화동)",서울특별시 중랑구 중화동 309-36 봉화경로당,37.603516,127.0760172
"서울특별시 중랑구 중랑천로20길 6-14, 구립백학경로당 (중화동)",서울특별시 중랑구 중화동 323-14 구립백학경로당,37.5957055,127.0729797
"서울특별시 중랑구 봉우재로33길 55-10, 봉황경로당 (상봉동)",서울특별시 중랑구 상봉동 103-3 봉황경로당,37.5952534,127.0882534
"서울특별시 중랑구 동일로112길 27, 상봉2동경로당 (상봉동)",서울특별시 중랑구 상봉동 122-31 상봉2동경로당,37.5931862,127.0823849
"서울특별시 중랑구 봉화산로30길 69-3, 청운경로당 (상봉동)",서울특별시 중랑구 상봉동 305-1 청운경로당,37.5990586,127.0853465
"서울특별시 중랑구 신내로7가길 71, 서촌경로당 (상봉동)",서울특별시 중랑구 상봉동 27 서촌경로당,37.6021578,127.0921213
"서울특별시 중랑구 봉화산로42길 20, 상봉1동 경로당 (상봉동)",서울특별시 중랑구 상봉동 228-2 상봉1동 경로당,37.6022283,127.0875521
"서울특별시 중랑구 면목로40길 23, 면목7동구립용마경로당 (면목동)",서울특별시 중랑구 면목동 619-7 면목7동구립용마경로당,37.5788422,127.0884627
"서울특별시 중랑구 사가정로50길 91, 구립면목7동경로당 (면목동)",서울특별시 중랑구 면목동 351 구립면목7동경로당,37.5768771,127.0843543
"서울특별시 중랑구 동일로92길 17-7, 면목5동제2구립노인정 (면목동)",서울특별시 중랑구 면목동 160-28 면목5동제2구립노인정,37.5838657,127.0808892
"서울특별시 중랑구 동일로95길 29, 면목5동제1구립경로당 (면목동)",서울특별시 중랑구 면목동 173-1 면목5동제1구립경로당,37.584662,127.0780568
"서울특별시 중랑구 면목로21길 28, 면목4동샘터경로당 (면목동)",서울특별시 중랑구 면목동 389-15 면목4동샘터경로당,37.5726305,127.0822947
"서울특별시 중랑구 용마산로 250-12, 용마폭포공원관리사무소 (면목동)",서울특별시 중랑구 면목동 산 1-4 용마폭포공원관리사무소,37.5732392,127.0912789
"서울특별시 중랑구 면목로31길 60, 면목4동대성경로당 (면목동)",서울특별시 중랑구 면목동 347-7 면목4동대성경로당,37.576107,127.0819328
"서울특별시 중랑구 사가정로49길 56, 까치어린이공원 (면목동)",서울특별시 중랑구 면목동 570 까치어린이공원,37.5834463,127.0873477
"서울특별시 중랑구 겸재로27가길 18-4, 동부경로당 (면목동)",서울특별시 중랑구 면목동 139-10 동부경로당,37.5882452,127.0829641
"서울특별시 중랑구 겸재로3길 50, 서부경로당 (면목동)",서울특별시 중랑구 면목동 178-19 서부경로당,37.588094,127.0768306
"서울특별시 중랑구 겸재로 212-7, 구립은행길경로당 (면목동)",서울특별시 중랑구 면목동 104-21 구립은행길경로당,37.5888474,127.0915259
"서울특별시 중랑구 면목로64길 37-4, 면목본동경로당 (면목동)",서울특별시 중랑구 면목동 109-55 면목본동경로당,37.5861245,127.0912454
"서울특별시 중랑구 면목로63길 36, 안수경로당 (면목동)",서울특별시 중랑구 면목동 543-56 안수경로당,37.5863632,127.0862676
"서울특별시 중랑구 동일로123길 69-5, 학구경로당 (중화동)",서울특별시 중랑구 중화동 316-70 학구경로당,37.5983282,127.0761619
"서울특별시 중랑구 면목로76길 42, 섬들경로당 (면목동)",서울특별시 중랑구 면목동 100-65 섬들경로당,37.5900996,127.0903577
"서울특별시 중랑구 동일로 792, 중화파출소 (중화동)",서울특별시 중랑구 중화동 287번지 8호 중화파출소,37.601417,127.0809418
"서울특별시 중랑구 용마공원로5길 13, 서울망우지구대 (망우동)",서울특별시 중랑구 망우동 405번지 25호 서울망우지구대,37.5954001,127.1016909
"서울특별시 중랑구 신내로 177, 봉화지구대 (신내동)",서울특별시 중랑구 신내동 644번지 3호 봉화지구대,37.6154944,127.0944549
서울특별시 중랑구 망우로 353 (상봉동) 상봉 프레미어스 엠코,서울특별시 중랑구 망우로 353 상봉프레미어스엠코,37.5982973,127.0903644
서울특별시 중랑구 송림길 114,서울특별시 중랑구 망우동 216 동원초등학교,37.604907,127.1049527
서울특별시 중랑구 동일로126가길 11 (상봉동),서울특별시 중랑구 상봉동 312-1 상봉초등학교,37.5980809,127.0837703
서울특별시 중랑구 면목로35길 21 (면목동),서울특별시 중랑구 면목동 665-2 동일교회,37.5781994,127.0846562
"서울특별시 중랑구 망우로 297, 상봉역 (상봉동)",서울특별시 중랑구 상봉동 100-9 상봉역,37.5967697,127.0860401
서울특별시 중랑구 봉우재로58길 39 (망우동),서울특별시 중랑구 봉우재로58길 39 혜원여자고등학교,37.5931005,127.0968591
"서울특별시 서초구 방배로 지하 80, 방배역 (방배동)",서울특별시 서초구 방배동 912-14 방배역,37.4812897,126.9970307
"서울특별시 양천구 신정이펜1로 20, 서울특별시서남병원 (신정동)",서울특별시 양천구 신정동 1320번지 7호 서울특별시서남병원,37.512746,126.8323147
서울특별시 중랑구 면목로57길 32 (면목동),서울특별시 중랑구 면목동 551 면동초등학교,37.5852733,127.086692
서울특별시 중랑구 면목로30나길 38,서울특별시 중랑구 면목동 583-15 면남초등학교,37.577236,127.088119
서울특별시 중랑구 망우로70길 89,서울특별시 중랑구 망우동 122-1 봉화중학교,37.5965105,127.1039704
서울특별시 중랑구 용마산로100길 13 (망우동),서울특별시 중랑구 용마산로100길 13 (망우동),37.5920729,127.0997979
서울특별시 중랑구 공릉로2길 60-25,서울특별시 중랑구 묵동 121-278 태릉중학교,37.6123132,127.082819
서울특별시 중랑구 망우로73길 56,"서울특별시 중랑구 망우동 220 이화여대병설미디어고등학교,영란여중",37.6037244,127.1048321
서울특별시 중랑구 양원역로 67,서울특별시 중랑구 양원역로 67,37.6068821,127.10515
"서울특별시 중랑구 겸재로9길 45, 중랑구노인종합복지회관 (면목동)",서울특별시 중랑구 면목동 178번지 8호 중랑구노인종합복지회관,37.5887264,127.0776377
서울특별시 중랑구 용마산로 380 (면목동),서울특별시 중랑구 면목동 81-3 경성여객자동차(주),37.5852641,127.0955138
"서울특별시 중랑구 면목로 지하 407, 면목역 (면목동)",서울특별시 중랑구 면목동 282번지 6호 면목역,37.5938967,127.0924663
"서울특별시 중랑구 용마산로136길 33, 신내차량기지사업소 (신내동)",서울특별시 중랑구 신내동 19 신내차량기지사업소,37.6120647,127.109075
"서울특별시 중랑구 용마산로 616 (신내동, 새한아파트)",서울특별시 중랑구 신내동 795번지 새한아파트,37.6051873,127.1014689
"서울특별시 중랑구 신내로 128 (신내동, 동성아파트)",서울특별시 중랑구 신내동 397번지 동성아파트,37.6097113,127.0974725
"서울특별시 중랑구 신내로19길 42 (신내동, 신내6단지신내아파트)",서울특별시 중랑구 신내동 650 신내6단지신내아파트,37.6152689,127.0910266
"서울특별시 중랑구 신내로19길 42 (신내동, 신내6단지신내아파트)",서울특별시 중랑구 신내동 650 신내6단지신내아파트,37.6152689,127.0910266
"서울특별시 중랑구 신내로19길 42 (신내동, 신내6단지신내아파트)",서울특별시 중랑구 신내동 650 신내6단지신내아파트,37.6152689,127.0910266
"서울특별시 중랑구 신내로19길 42 (신내동, 신내6단지신내아파트)",서울특별시 중랑구 신내동 650 신내6단지신내아파트,37.6152689,127.0910266
"서울특별시 중랑구 신내로19길 42 (신내동, 신내6단지신내아파트)",서울특별시 중랑구 신내동 650 신내6단지신내아파트,37.6152689,127.0910266
"서울특별시 중랑구 신내로19길 42 (신내동, 신내6단지신내아파트)",서울특별시 중랑구 신내동 650 신내6단지신내아파트,37.6152689,127.0910266
"서울특별시 중랑구 신내로19길 42 (신내동, 신내6단지신내아파트)",서울특별시 중랑구 신내동 650 신내6단지신내아파트,37.6152689,127.0910266
"서울특별시 중랑구 신내로19길 42 (신내동, 신내6단지신내아파트)",서울특별시 중랑구 신내동 650 신내6단지신내아파트,37.6152689,127.0910266
"서울특별시 중랑구 신내로19길 42 (신내동, 신내6단지신내아파트)",서울특별시 중랑구 신내동 650 신내6단지신내아파트,37.6152689,127.0910266
"서울특별시 중랑구 신내로19길 42 (신내동, 신내6단지신내아파트)",서울특별시 중랑구 신내동 650 신내6단지신내아파트,37.6152689,127.0910266
"서울특별시 중랑구 신내로19길 42 (신내동, 신내6단지신내아파트)",서울특별시 중랑구 신내동 650 신내6단지신내아파트,37.6152689,127.0910266
"서울특별시 중랑구 신내로19길 42 (신내동, 신내6단지신내아파트)",서울특별시 중랑구 신내동 650 신내6단지신내아파트,37.6152689,127.0910266
"서울특별시 중랑구 신내로19길 42 (신내동, 신내6단지신내아파트)",서울특별시 중랑구 신내동 650 신내6단지신내아파트,37.6152689,127.0910266
"서울특별시 중랑구 신내로19길 42 (신내동, 신내6단지신내아파트)",서울특별시 중랑구 신내동 650 신내6단지신내아파트,37.6152689,127.0910266
"서울특별시 중랑구 신내로19길 42 (신내동, 신내6단지신내아파트)",서울특별시 중랑구 신내동 650 신내6단지신내아파트,37.6152689,127.0910266
"서울특별시 중랑구 신내로19길 42 (신내동, 신내6단지신내아파트)",서울특별시 중랑구 신내동 650 신내6단지신내아파트,37.6152689,127.0910266
서울특별시 중랑구 신내로 56 (신내동),서울특별시 중랑구 신내동 572번지 2호,37.6047773,127.096328
"서울특별시 중랑구 신내로15길 189, 중랑구민체육센터 (묵동)",서울특별시 중랑구 묵동 22번지 1호 중랑구민체육센터,37.6152222,127.0869495
서울특별시 중랑구 신내로 201 (신내동),서울특별시 중랑구 신내동 645 홈플러스서울신내점,37.6157981,127.093771
"서울특별시 중랑구 용마산로 669 (신내동, 신내데시앙아파트)",서울특별시 중랑구 신내동 317번지 신내데시앙아파트,37.6109282,127.0994663
서울특별시 중랑구 신내로23길 57 (묵동),서울특별시 중랑구 묵동 12 원묵중학교,37.6177935,127.0845642
서울특별시 중랑구 신내로15길 110 (신내동),서울특별시 중랑구 신내동 655 봉화초등학교,37.6134055,127.0921485
서울특별시 중랑구 신내로7가길 22 (신내동),서울특별시 중랑구 신내동 531 중화초등학교,37.6029987,127.0946387
"서울특별시 중랑구 숙선옹주로 45 관리사무소 (묵동, e-편한세상화랑대)","서울특별시 중랑구 숙선옹주로 45 (묵동, e-편한세상화랑대)",37.6157002,127.0825669
서울특별시 중랑구 신내로23길 36 (묵동),서울특별시 중랑구 묵동 6 태릉고등학교,37.618954,127.0852735
"서울특별시 중랑구 용마산로118길 103, 망우1 치안센터 (망우동)",서울특별시 중랑구 망우동 146번지 41호 망우1 치안센터,37.6017539,127.1074724
"서울특별시 중랑구 봉화산로56길 123 (신내동, 중앙하이츠아파트)",서울특별시 중랑구 신내동 479번지 중앙하이츠아파트,37.6035001,127.0980974
"서울특별시 중랑구 신내로7나길 24 (상봉동, 건영2차아파트)",서울특별시 중랑구 상봉동 63 건영2차아파트,37.6012035,127.0929431
서울특별시 구로구 오리로 1100 천왕파출소 (천왕동),서울특별시 구로구 천왕동 산13-1 천왕연지타워 천왕파출소,37.4838658,126.8412494
서울특별시 양천구 목동로3길 41,서울특별시 양천구 신정동 276 신정지하철차량기지,37.5109999,126.8652145
서울특별시 양천구 목동로3길 41,서울특별시 양천구 신정동 276 신정지하철차량기지,37.5109999,126.8652145
"서울특별시 중랑구 면목로66길 7, 면목1치안센터 (면목동)",서울특별시 중랑구 면목동 108번지 3호 면목1치안센터,37.5866192,127.0897393
서울특별시 중랑구 봉우재로6길 5 (면목동),서울특별시 중랑구 면목동 181-67,37.58968,127.0762442
"서울특별시 중랑구 겸재로61길 40, 망우3동 주민센터 (망우동)",서울특별시 중랑구 망우동 529-2 망우3동 주민센터,37.5918805,127.0949316
"서울특별시 중랑구 동일로114길 10, 상봉2동 복합청사 (상봉동)",서울특별시 중랑구 상봉동 126 상봉2동 복합청사,37.5929225,127.0808537
"서울특별시 금천구 시흥대로 460, 서울문성초등학교 (독산동)",서울특별시 금천구 독산동 982번지 서울문성초등학교,37.4746033,126.8993567
"서울특별시 강남구 광평로 지하 270, 수서역 (수서동)",서울특별시 강남구 수서동 728번지 수서역,37.4882619,127.1005851
"서울특별시 구로구 연동로 320, 성공회대학교 (항동)",서울특별시 구로구 항동 1번지 1호 성공회대학교 내,37.4873105,126.8242388
서울특별시 서대문구 통일로 지하440-1,서울특별시 서대문구 홍제동 161-1 홍제역,37.5876996,126.9453316
"서울특별시 서대문구 세검정로4길 32, 홍제제3동주민센터 (홍제동)",서울특별시 서대문구 홍제동 7번지 13호 홍제제3동주민센터,37.5935137,126.9499901
서울특별시 서대문구 세검정로1길 112 (홍은동),서울특별시 서대문구 세검정로1길 112 (홍은동),37.5952422,126.9464433
서울특별시 서대문구 연희로 298 (홍은동),서울특별시 서대문구 연희로 298 (홍은동),37.5836028,126.9362146
서울특별시 서대문구 경기대로 23,서울특별시 서대문구 경기대로 23,37.5615441,126.9617224
서울특별시 서대문구 독립문로10길 6 (천연동),서울특별시 서대문구 천연동 98-1,37.5686139,126.9612893
서울특별시 서대문구 북아현로11가길 7 중앙여자중학교,서울특별시 서대문구 북아현동 190-1 서울중앙여자중학교 중앙여자중학교,37.562727,126.9533341
서울특별시 서대문구 경기대로 65 (충정로2가),서울특별시 서대문구 충정로2가 70 인창중？고등학교,37.5653033,126.9637898
서울특별시 서대문구 경기대로 65 (충정로2가),서울특별시 서대문구 경기대로 65 (충정로2가),37.565425,126.9634625
서울특별시 서대문구 경기대로 65 (충정로2가),서울특별시 서대문구 경기대로 65 (충정로2가),37.565425,126.9634625
"서울특별시 서대문구 경기대로 65, 인창중·고등학교 (충정로2가)",서울특별시 서대문구 충정로2가 70번지 인창중·고등학교,37.5653033,126.9637898
서울특별시 서대문구 세검정로4길 69 (홍제동),서울특별시 서대문구 홍제동 9-27 인왕중학교,37.592777,126.9521582
서울특별시 서대문구 성산로 520 (대신동),서울특별시 서대문구 대신동 47 이화여자대학교 부속 중학교,37.5639404,126.9456332
서울특별시 서대문구 홍은중앙로1길 33 (홍은동) 유원아파트,서울특별시 서대문구 홍은중앙로1길 33 (홍은동) 유원아파트,37.5976081,126.9446376
서울특별시 서대문구 홍은중앙로1길 33 (홍은동) 유원아파트,서울특별시 서대문구 홍은중앙로1길 33 (홍은동) 유원아파트,37.5976081,126.9446376
"서울특별시 서대문구 연희로 136, 서울연희초등학교 (연희동)",서울특별시 서대문구 연희동 88번지 1호 서울연희초등학교,37.5692236,126.9338279
서울특별시 서대문구 신촌역로 22,서울특별시 서대문구 신촌역로 22,37.5585594,126.9430087
서울특별시 서대문구 신촌역로 30 (신촌동),서울특별시 서대문구 신촌동 142-30 신촌민자역사,37.56002669,126.9422315
"서울특별시 서대문구 연희로32길 129, 서대문청소년수련관 (연희동)",서울특별시 서대문구 연희동 167번지 1호 서대문청소년수련관,37.5789941,126.9382659
"서울특별시 서대문구 신촌역로 10, 7층 (대현동, 혜우빌딩)",서울특별시 서대문구 대현동 101번지 7호 서울지방국세청정보화센터,37.5578512,126.9433638
서울특별시 서대문구 충정로 52 (미근동),서울특별시 서대문구 미근동 36-1 서울미동초등학교,37.5631269,126.9661086
"서울특별시 서대문구 연희로11마길 9-6, 서연중학교 (연희동)",서울특별시 서대문구 연희동 267번지 1호 서연중학교,37.5682684,126.9276206
"서울특별시 서대문구 백련사길 39, 서대문문화체육회관 (홍은동)",서울특별시 서대문구 홍은동 산 26번지 155호 서대문문화체육회관,37.5805849,126.9293419
서울특별시 서대문구 연희로 290,서울특별시 서대문구 홍은동 425-3 서대문보건소별관우리들,37.5829546,126.9363947
서울특별시 서대문구 백련사길 39 (홍은동),서울특별시 서대문구 백련사길 39 (홍은동),37.5807597,126.9315574
"서울특별시 서대문구 백련사길 39, 서대문문화체육회관 (홍은동)",서울특별시 서대문구 홍은동 산 26-155 서대문문화체육회관,37.5808104,126.9316389
"서울특별시 서대문구 연희로 248, 서대문구청 (연희동)",서울특별시 서대문구 연희동 168번지 6호 서대문구청,37.5787601,126.9374143
서울특별시 서대문구 세검정로1길 45,서울특별시 서대문구 홍은동 71-626,37.5932305,126.9439032
"서울특별시 서대문구 성산로 704, 서대문경찰서교통안내센터 (영천동)",서울특별시 서대문구 영천동 252 서대문경찰서교통안내센터,37.5716218,126.9601632
서울특별시 서대문구 성산로 704 (영천동),서울특별시 서대문구 성산로 704 (영천동),37.5716195,126.9601467
서울특별시 서대문구 통일로17길 32-7,서울특별시 서대문구 현저동 1-101,37.5773677,126.9539997
"서울특별시 서대문구 성산로 694, 천연동주민센터 (영천동)",서울특별시 서대문구 영천동 101번지 천연동주민센터,37.5711194,126.9590555
서울특별시 서대문구 통일로34길 46 (홍제동) 인왕산현대아파트,서울특별시 서대문구 통일로34길 46 (홍제동) 인왕산현대아파트,37.5858753,126.9505864
서울특별시 서대문구 연희로32길 48 (연희동) 성원아파트,서울특별시 서대문구 연희로32길 48 (연희동) 성원아파트,37.5767384,126.9389822
서울특별시 서대문구 연희로 242,서울특별시 서대문구 연희로 242,37.578624,126.9362855
서울특별시 서대문구 이화여대8길 62 (북아현동) 두산아파트,서울특별시 서대문구 이화여대8길 62 (북아현동) 두산아파트,37.5592794,126.9502937
"서울특별시 서대문구 독립문로14길 33 (냉천동, 돈의문센트레빌)",서울특별시 서대문구 냉천동 261번지 돈의문센트레빌,37.5661372,126.9615912
서울특별시 서대문구 독립문로14길 33 (냉천동) 돈의문센트레빌,서울특별시 서대문구 독립문로14길 33 (냉천동) 돈의문센트레빌,37.5663289,126.9613883
"서울특별시 양천구 목동서로 367, 양천문화회관 (신정동)",서울특별시 양천구 신정동 322번지 양천문화회관,37.5165567,126.8632839
"서울특별시 서대문구 응암로 28 (북가좌동, DMC한양)",서울특별시 서대문구 북가좌동 431 DMC한양,37.5759022,126.9091078
"서울특별시 양천구 목동동로 105, 양천구청 (신정동)",서울특별시 양천구 신정동 321번지 4호 양천구청,37.5167331,126.8656765
"서울특별시 양천구 목동서로 113, 양천도서관 (목동)",서울특별시 양천구 목동 905번지 양천도서관,37.5335056,126.8760876
"서울특별시 양천구 오목로 지하 342, 오목교역 (목동)",서울특별시 양천구 목동 406번지 30호 오목교역,37.526046,126.8689013
서울특별시 서대문구 수색로 100 DMC래미안e편한세상아파트,서울특별시 서대문구 북가좌동 481 DMC래미안e편한세상 DMC래미안e편한세상아파트,37.5726617,126.9105626
"서울특별시 양천구 목동서로 15, 한가람고등학교 (목동)",서울특별시 양천구 목동 909번지 12호 한가람고등학교,37.5374557,126.8830216
"서울특별시 양천구 지양로7길 32, 양천중학교 (신월동)",서울특별시 양천구 신월동 948번지 양천중학교,37.5198448,126.8308311
서울특별시 양천구 곰달래로2길 32 (신월동) 해주아파트,서울특별시 양천구 신월동 217-8 해주아파트,37.5270899,126.8346132
서울특별시 양천구 목동로3길 106,서울특별시 양천구 신정동 325-3 양천노인종합복지관,37.5104984,126.8585579
"서울특별시 양천구 목동동로 151, 서울출입국·외국인청 (신정동)",서울특별시 양천구 신정동 319번지 2호 서울출입국·외국인청,37.5209044,126.8690589
서울특별시 서대문구 통일로 441-1 (홍제동),서울특별시 서대문구 통일로 441-1 (홍제동),37.5881734,126.9445711
서울특별시 양천구 신정로7길 76,서울특별시 양천구 신정동 1281 푸른마을아파트,37.5135583,126.835376
서울특별시 양천구 신정로7길 76,서울특별시 양천구 신정동 1281 푸른마을아파트,37.5135583,126.835376
서울특별시 양천구 신정로7길 76,서울특별시 양천구 신정동 1281 푸른마을아파트,37.5135583,126.835376
서울특별시 양천구 신정로7길 76,서울특별시 양천구 신정동 1281 푸른마을아파트,37.5135583,126.835376
서울특별시 양천구 신정로7길 76,서울특별시 양천구 신정동 1281 푸른마을아파트,37.5135583,126.835376
서울특별시 양천구 신정로7길 76,서울특별시 양천구 신정동 1281 푸른마을아파트,37.5135583,126.835376
서울특별시 양천구 신정로7길 76,서울특별시 양천구 신정동 1281 푸른마을아파트,37.5135583,126.835376
"서울특별시 양천구 목동로3길 지하 33, 양천구청역 (신정동)",서울특별시 양천구 신정동 276번지 7호 양천구청역,37.5109999,126.8652145
서울특별시 양천구 목동동로 316-8 (목동),서울특별시 양천구 목동 915 양천구청청소과차고,37.5278442,126.8777951
"서울특별시 양천구 목동동로 316-8, 운전원 사무실 1-2층 (목동)",서울특별시 양천구 목동 915 운전원 사무실 1-2층,37.5278442,126.8777951
서울특별시 서대문구 연희로 353 그랜드힐튼호텔,서울특별시 서대문구 홍은동 201-1 그랜드힐튼호텔 그랜드힐튼호텔,37.589196,126.935269
서울특별시 구로구 구일로4길 46 (구로동) 현대연예인아파트,서울특별시 구로구 구로동 685-70 현대연예인아파트,37.4929871,126.8771082
"서울특별시 양천구 안양천로 1039, 양정중학교.양정고등학교 (목동)",서울특별시 양천구 목동 911번지 2호 양정중학교.양정고등학교,37.5346442,126.8848174
서울특별시 양천구 중앙로29길 61,서울특별시 양천구 신월동 1063 신정뉴타운롯데캐슬,37.5187636,126.8475745
"서울특별시 금천구 독산로54길 114, 금천구립독산도서관 (독산동)",서울특별시 금천구 독산동 375번지 2호 금천구립독산도서관,37.467498,126.9084809
서울특별시 양천구 안양천로 711 (신정동),서울특별시 양천구 신정동 330-4,37.51154,126.8723995
"서울특별시 양천구 목동동로2길 68, 목동고등학교,봉영여자중학교 (신정동)","서울특별시 양천구 신정동 325번지 8호 목동고등학교,봉영여자중학교",37.5120645,126.8584313
"서울특별시 양천구 중앙로 250, 양천구자원봉사센터 (신정동)",서울특별시 양천구 신정동 1032번지 12호 양천나눔누리센터,37.5196161,126.8534003
"서울특별시 양천구 목동동로 81, 해누리타운 (신정동)",서울특별시 양천구 신정동 322번지 11호 해누리타운,37.5165567,126.8632839
"서울특별시 양천구 목동동로 87, 양천구민체육센터 (신정동)",서울특별시 양천구 신정동 322번지 10호 양천구민체육센터,37.5165567,126.8632839
"서울특별시 양천구 지양로 47, 신월문화체육센타 (신월동)",서울특별시 양천구 신월동 987번지 신월문화체육센타,37.519754,126.834915
"서울특별시 양천구 목동중앙본로 73, 목동문화체육센터 (목동)",서울특별시 양천구 목동 946번지 1호 목동문화체육센터,37.5442492,126.8663798
"서울특별시 양천구 신정로 273-5, 계남다목적체육관 (신정동)",서울특별시 양천구 신정동 695번지 6호 계남다목적체육관,37.513086,126.850499
서울특별시 양천구 남부순환로83길 54 (신월동),서울특별시 양천구 신월동 1077-2,37.5176142,126.8457279
서울특별시 양천구 목동서로 363,서울특별시 양천구 신정동 322-15 양천생활안전체험교육관,37.5168208,126.8639828
"서울특별시 양천구 신정로7길 17, 양천공영차고지 (신정동)",서울특별시 양천구 신정동 1312번지 양천공영차고지,37.5077133,126.8365049
서울특별시 양천구 신정로14길 13 (신정동),서울특별시 양천구 신정동 109-1,37.5087665,126.8457476
"서울특별시 양천구 안양천로 1039, 양정중학교.양정고등학교 (목동)",서울특별시 양천구 목동 911번지 2호 양정중학교.양정고등학교,37.5346442,126.8848174
서울특별시 양천구 화곡로 16 (신월동),서울특별시 양천구 신월동 40-1 서울양원초등학교,37.5388998,126.8234429
"서울특별시 양천구 남부순환로 380, 양서중학교 (신월동)",서울특별시 양천구 신월동 169번지 4호 양서중학교,37.5119125,126.8245074
"서울특별시 양천구 목동중앙북로 49, 양동중학교 (목동)",서울특별시 양천구 목동 600번지 6호 양동중학교,37.5485419,126.8686618
"서울특별시 양천구 중앙로 319, 양강중학교 (신월동)",서울특별시 양천구 신월동 499번지 2호 양강중학교,37.5242865,126.8490837
"서울특별시 양천구 남부순환로29길 35, 신화중학교 (신월동)",서울특별시 양천구 신월동 17번지 7호 신화중학교,37.5414172,126.829459
"서울특별시 양천구 신정이펜1로 99 (신정동, 신정이펜하우스1단지)",서울특별시 양천구 신정동 1321번지 신정이펜하우스1단지,37.514837,126.827045
"서울특별시 양천구 오목로 지하 179, 신정역 (신정동)",서울특별시 양천구 신정동 1090번지 신정역,37.5247223,126.8542873
"서울특별시 양천구 목동서로 353, 신정6동주민센터 (신정동)",서울특별시 양천구 신정동 322번지 9호 신정6동주민센터,37.5165567,126.8632839
"서울특별시 양천구 오목로34길 5, 신정4동주민센터 (신정동)",서울특별시 양천구 신정동 949번지 5호 신정4동주민센터,37.5247638,126.8557322
"서울특별시 양천구 중앙로 209, 신정3동주민센터 (신정동)",서울특별시 양천구 신정동 1263번지 신정3동주민센터,37.5151182,126.8547748
"서울특별시 양천구 목동동로 152, 신정2동치안센터 (신정동)",서울특별시 양천구 신정동 329번지 9호 신정2동치안센터,37.5161846,126.8703618
"서울특별시 양천구 목동동로 154, 신정2동주민센터 (신정동)",서울특별시 양천구 신정동 329번지 9호 신정2동주민센터,37.5161846,126.8703618
"서울특별시 양천구 중앙로32길 1, 신정1동주민센터 (신정동)",서울특별시 양천구 신정동 1051번지 11호 신정1동주민센터,37.5188282,126.8541572
"서울특별시 양천구 신월로 368, 신정제1동우체국 (신정동)",서울특별시 양천구 신정동 1017번지 15호 신정제1동우체국,37.5218288,126.8612737
서울특별시 양천구 가로공원로 86,서울특별시 양천구 신월동 150-3 신월청소년문화쎈타,37.5352399,126.8254956
"서울특별시 양천구 남부순환로 609, 신월6동주민센터 (신월동)",서울특별시 양천구 신월동 559번지 3호 신월6동주민센터,37.5153993,126.8405917
"서울특별시 양천구 남부순환로31길 37, 신월5동치안센터 (신월동)",서울특별시 양천구 신월동 59번지 5호 신월5동치안센터,37.5392349,126.8299202
"서울특별시 양천구 화곡로4길 10, 신월5동주민센터 (신월동)",서울특별시 양천구 신월동 52번지 2호 신월5동주민센터,37.5386647,126.8268761
"서울특별시 양천구 오목로5길 34, 신월4동주민센터 (신월동)",서울특별시 양천구 신월동 425번지 2호 신월4동주민센터,37.5249632,126.8398231
"서울특별시 양천구 오목로5길 34, 신월4동주민센터 (신월동)",서울특별시 양천구 신월동 425번지 2호 신월4동주민센터,37.5249632,126.8398231
"서울특별시 양천구 가로공원로 101, 신월3치안센터 (신월동)",서울특별시 양천구 신월동 49번지 11호 신월노인복지센터,37.5361119,126.8262352
"서울특별시 양천구 남부순환로54길 5, 신월3동주민센터 (신월동)",서울특별시 양천구 신월동 167번지 5호 신월3동주민센터,37.5141596,126.8248896
"서울특별시 양천구 중앙로53길 47, 신월2동주민센터 (신월동)",서울특별시 양천구 신월동 483번지 11호 신월2동주민센터,37.524866,126.8437838
서울특별시 양천구 남부순환로59길 8 (신월동),서울특별시 양천구 신월동 132번지 3호,37.5320082,126.8320241
"서울특별시 양천구 가로공원로55길 19, 신원중학교 (신월동)",서울특별시 양천구 신월동 43번지 4호 신원중학교,37.5384542,126.8244086
"서울특별시 양천구 신목로 10 (신정동, 목동현대아파트)",서울특별시 양천구 신정동 1279-1 목동현대아파트,37.5181306,126.8766622
"서울특별시 양천구 목동중앙로 88, 신목중학교 (목동)",서울특별시 양천구 목동 902번지 1호 신목중학교,37.5374768,126.875942
"서울특별시 양천구 목동중앙로 지하 217, 신목동역 (목동)",서울특별시 양천구 목동 136번지 2호 신목동역,37.5442676,126.8835302
"서울특별시 양천구 안양천로 739, 신목고등학교 (신정동)",서울특별시 양천구 신정동 330번지 3호 신목고등학교,37.5135389,126.8719615
"서울특별시 양천구 월정로 280, 서울특별시학생체육관강서분관 (신월동)",서울특별시 양천구 신월동 6번지 7호 서울강신초등학교,37.5448463,126.8290882
"서울특별시 양천구 남부순환로64길 20, 공원관리사무소 (신월동)",서울특별시 양천구 신월동 149번지 20호 공원관리사무소,37.5320572,126.8250414
"서울특별시 양천구 신정로11길 74, 지향초등학교 (신정동)",서울특별시 양천구 신정동 1284번지 지향초등학교,37.5131585,126.8374244
서울특별시 양천구 목동중앙로 212 (목동),서울특별시 양천구 목동 900-2 서울지방식품의약품안정청,37.543535,126.8821845
"서울특별시 양천구 목동중앙로3길 30-10, 서울정목초등학교 (목동)",서울특별시 양천구 목동 757번지 1호 서울정목초등학교,37.5373175,126.8704935
"서울특별시 양천구 신정로13가길 30, 서울장수초등학교 (신정동)",서울특별시 양천구 신정동 1288번지 2호 서울장수초등학교,37.5129052,126.8443383
"서울특별시 양천구 목동남로 85, 은정초등학교 (신정동)",서울특별시 양천구 신정동 276번지 2호 은정초등학교,37.5109999,126.8652145
"서울특별시 양천구 목동중앙로 132, 서울월촌초등학교 (목동)",서울특별시 양천구 목동 901번지 1호 서울월촌초등학교,37.5396094,126.8793373
"서울특별시 양천구 목동로11길 46, 서울영상고등학교 (신정동)",서울특별시 양천구 신정동 984번지 서울영상고등학교,37.5232579,126.8600299
"서울특별시 양천구 목동로11길 46, 서울영상고등학교 (신정동)",서울특별시 양천구 신정동 984번지 서울영상고등학교,37.5232579,126.8600299
"서울특별시 양천구 목동중앙로 70, 서울영도초등학교 (목동)",서울특별시 양천구 목동 903번지 1호 서울영도초등학교,37.5343601,126.8729465
"서울특별시 양천구 목동중앙북로16길 57, 서울양화초등학교 (목동)",서울특별시 양천구 목동 542번지 서울양화초등학교,37.5437034,126.8746254
"서울특별시 양천구 목동중앙로 204, 목원초등학교 (목동)",서울특별시 양천구 목동 191번지 1호 목원초등학교,37.5429287,126.8823185
"서울특별시 양천구 목동동로2길 54, 서울계남초등학교 (신정동)",서울특별시 양천구 신정동 325번지 7호 서울계남초등학교,37.5120645,126.8584313
"서울특별시 양천구 안양천로 1009, 서울경인초등학교 (목동)",서울특별시 양천구 목동 911번지 4호 서울경인초등학교,37.5346442,126.8848174
"서울특별시 양천구 월정로 280, 서울강신초등학교 (신월동)",서울특별시 양천구 신월동 6번지 7호 서울강신초등학교,37.5448463,126.8290882
서울특별시 양천구 목동동로 375,서울특별시 양천구 목동 907-3 양천구사회적경제지원센터,37.5351908,126.878589
"서울특별시 양천구 오목로 지하 245, 목동역 (목동)",서울특별시 양천구 목동 926번지 3호 목동역,37.5267384,126.8657649
서울특별시 양천구 목동중앙로3길 21,서울특별시 양천구 목동 765-1,37.5364447,126.8692382
"서울특별시 양천구 목동서로 41, 목5동주민센터 (목동)",서울특별시 양천구 목동 908번지 32호 목5동주민센터,37.5370866,126.880538
"서울특별시 양천구 목동중앙남로16나길 55, 목3동주민센터 (목동)",서울특별시 양천구 목동 642번지 1호 목3동주민센터,37.5447863,126.8644583
"서울특별시 양천구 목동동로 309, 행복한세상 6층 (목동)",서울특별시 양천구 목동 917번지 6호 행복한세상,37.5295064,126.8751422
서울특별시 양천구 남부순환로65길 6 (신월동) 나산아파트,서울특별시 양천구 신월동 217-2 나산아파트,37.5275566,126.8343399
"서울특별시 양천구 목동중앙남로 27, 강서고등학교.영도중학교 (목동)",서울특별시 양천구 목동 735번지 강서고등학교.영도중학교,37.5364128,126.8663611
서울특별시 양천구 신목로 46,서울특별시 양천구 신정동 296-91 양천구보훈회관,37.5194044,126.8731896
서울특별시 도봉구 마들로 849,서울특별시 도봉구 도봉동 646 누원고등학교,37.6852351,127.0504633
"서울특별시 도봉구 노해로69길 132, 창동운동장 및 문화체육센터 (창동)",서울특별시 도봉구 창동 1-6 창동운동장 및 문화체육센터,37.6581769,127.0507544
"서울특별시 도봉구 노해로69길 132, 창동운동장 및 문화체육센터 (창동)",서울특별시 도봉구 창동 1-6 창동운동장 및 문화체육센터,37.6581769,127.0507544
서울특별시 도봉구 도봉로 552,서울특별시 도봉구 창동 303 도봉구민회관,37.6541082,127.0386396
서울특별시 도봉구 덕릉로60차길 6,서울특별시 도봉구 창동 467-4 창동노인복지센터,37.6367056,127.041399
서울특별시 도봉구 시루봉로15라길 59-9,서울특별시 도봉구 방학동 393-5 방학동노인복지센터,37.6705992,127.0322148
서울특별시 도봉구 해등로32길 80,서울특별시 도봉구 해등로32길 80,37.6599304,127.0238058
서울특별시 도봉구 시루봉로1길 6,서울특별시 도봉구 쌍문동 산240-5 둘리뮤지엄,37.6522882,127.027614
"서울특별시 도봉구 노해로69길 132, 창동운동장 및 문화체육센터 (창동)",서울특별시 도봉구 창동 1-6 창동운동장 및 문화체육센터,37.6581769,127.0507544
서울특별시 도봉구 도봉로115길 16,서울특별시 도봉구 쌍문동 94-1 신도봉중학교,37.649341,127.0332275
서울특별시 도봉구 노해로66길 60,서울특별시 도봉구 창동 369 창일중학교,37.6486618,127.0469705
서울특별시 도봉구 마들로 671,서울특별시 도봉구 도봉동 622-40 도봉중학교,37.6704598,127.0456905
서울특별시 도봉구 도봉산길 86 도봉분소,"서울특별시 도봉구 도봉산길 86, 북한산생태탐방원 (도봉동)",37.6876485,127.0348504
서울특별시 도봉구 도봉로169길 43,서울특별시 도봉구 도봉로169길 43,37.6794794,127.0434199
서울특별시 도봉구 시루봉로 53,서울특별시 도봉구 쌍문동 산74 학교법인세그루학원,37.6565077,127.0267711
서울특별시 도봉구 시루봉로2길 34,서울특별시 도봉구 시루봉로2길 34,37.6541764,127.0291156
서울특별시 도봉구 시루봉로6길 33,서울특별시 도봉구 방학동 270-1,37.6597884,127.0311869
서울특별시 도봉구 노해로49길 69,서울특별시 도봉구 쌍문동 150-1 정의학교,37.652972,127.031808
서울특별시 도봉구 도봉로173길 96,서울특별시 도봉구 도봉동 429-1 도봉초등학교,37.6793598,127.03838
서울특별시 도봉구 도봉산길 86 도봉분소,"서울특별시 도봉구 도봉산길 86, 북한산생태탐방원 (도봉동)",37.6876485,127.0348504
서울특별시 도봉구 마들로11길 77,서울특별시 도봉구 창동 135-1 창동역,37.6533818,127.0477034
서울특별시 도봉구 노해로 140,서울특별시 도봉구 쌍문동 381-4 쌍문동 청소년랜드,37.6472274,127.0260553
서울특별시 도봉구 해등로32길 11,서울특별시 도봉구 방학동 514-2 서울초당초등학교,37.658103,127.022313
서울특별시 도봉구 우이천로4길 24-5,서울특별시 도봉구 창동 502-33 창동 보듬이 나눔이 영유아프라자,37.6335684,127.0411283
서울특별시 도봉구 방학로 247-21,서울특별시 도봉구 방학동 460-5 서울신학초등학교,37.6607972,127.0253071
서울특별시 도봉구 시루봉로 285,서울특별시 도봉구 도봉동 608-22 서울오봉초등학교,37.6716508,127.0403694
서울특별시 도봉구 우이천로 360,서울특별시 도봉구 쌍문동 360-4 쌍문초등학교,37.6487109,127.0244775
서울특별시 도봉구 도봉로136가길 68,서울특별시 도봉구 창동 823 창동금호어울림아파트,37.6564796,127.0417515
서울특별시 도봉구 도봉로170길 40,서울특별시 도봉구 도봉로170길 40,37.679884,127.04647
서울특별시 도봉구 덕릉로66길 22,서울특별시 도봉구 창동 35 서울외국어고등학교,37.6453656,127.0520053
서울특별시 도봉구 마들로 747,서울특별시 도봉구 도봉동 626-20 서울북부지방검찰청,37.676422,127.0462784
서울특별시 도봉구 도봉로 678,서울특별시 도봉구 방학동 707-7 홈플러스데스코㈜방학점,37.6648548,127.0437543
서울특별시 도봉구 마들로 849,서울특별시 도봉구 도봉동 646 누원고등학교,37.6852351,127.0504633
서울특별시 도봉구 마들로 598,서울특별시 도봉구 방학동 723 서울문화고등학교,37.6634929,127.0471018
서울특별시 도봉구 노해로70길 95,서울특별시 도봉구 창동 32 노곡중학교,37.6482048,127.0533712
서울특별시 도봉구 도봉로 964-33,서울특별시 도봉구 도봉동 18-1 도봉산역1호선,37.689781,127.0461883
서울특별시 도봉구 도봉로110다길 5,서울특별시 도봉구 창동 621-69 창동 한신아파트,37.6457291,127.0349775
서울특별시 도봉구 해등로3길 48-11,서울특별시 도봉구 창동 산48-4 초안산근린공원관리사무소,37.6482879,127.0411275
서울특별시 도봉구 도봉로 964-40,서울특별시 도봉구 도봉로 964-40,37.6891205,127.0465288
서울특별시 도봉구 노해로69길 150,서울특별시 도봉구 창동 1 자운고등학교,37.6590184,127.0505346
서울특별시 도봉구 도봉로110길 25 (창동),서울특별시 도봉구 창동 651-3 창동전화국,37.6464161,127.0350336
서울특별시 도봉구 노해로69길 150,서울특별시 도봉구 창동 1 자운고등학교,37.6590184,127.0505346
서울특별시 도봉구 마들로 747,서울특별시 도봉구 도봉동 626-20 서울북부지방검찰청,37.676422,127.0462784
서울특별시 도봉구 노해로49길 69,서울특별시 도봉구 노해로49길 69,37.6528605,127.0310388
"서울특별시 도봉구 노해로69길 132, 창동운동장 및 문화체육센터 (창동)",서울특별시 도봉구 창동 1-6 창동운동장 및 문화체육센터,37.6581769,127.0507544
서울특별시 도봉구 시루봉로 145,서울특별시 도봉구 방학동 436-3 방학동성당,37.6639297,127.0277998
"서울특별시 도봉구 도봉산길 92-3, 도봉소방서산악구조대 (도봉동)",서울특별시 도봉구 도봉동 산 31번지 도봉소방서산악구조대,37.6952455,127.0200053
서울특별시 도봉구 도봉산길 86,서울특별시 도봉구 도봉산길 86,37.6876485,127.0348504
서울특별시 도봉구 도봉산길 86,서울특별시 도봉구 도봉산길 86,37.6876485,127.0348504
"서울특별시 도봉구 도봉산길 92-3, 도봉소방서산악구조대 (도봉동)",서울특별시 도봉구 도봉동 산 31번지 도봉소방서산악구조대,37.6952455,127.0200053
"서울특별시 도봉구 도봉산길 92-3, 도봉소방서산악구조대 (도봉동)",서울특별시 도봉구 도봉동 산 31번지 도봉소방서산악구조대,37.6952455,127.0200053
"서울특별시 도봉구 도봉산길 92-3, 도봉소방서산악구조대 (도봉동)",서울특별시 도봉구 도봉동 산 31번지 도봉소방서산악구조대,37.6952455,127.0200053
"서울특별시 도봉구 노해로67길 14, 한국마사회창동지점 (창동)",서울특별시 도봉구 창동 8번지 한국마사회창동지점,37.6523001,127.0494293
서울특별시 도봉구 도봉산길 86 (도봉동),서울특별시 도봉구 도봉동 산 29번지 99호,37.6792937,127.0125896
"서울특별시 도봉구 노해로67길 14, 한국마사회창동지점 (창동)",서울특별시 도봉구 창동 8번지 한국마사회창동지점,37.6523001,127.0494293
서울특별시 도봉구 도봉산길 86 도봉분소,"서울특별시 도봉구 도봉산길 86, 북한산생태탐방원 (도봉동)",37.6876485,127.0348504
"서울특별시 도봉구 노해로65길 4, 창동EMART (창동)",서울특별시 도봉구 창동 135번지 26호 창동EMART,37.6435399,127.0425316
서울특별시 도봉구 노해로69길 14,서울특별시 도봉구 노해로69길 14,37.6531776,127.0517279
서울특별시 도봉구 시루봉로1길 6,서울특별시 도봉구 쌍문동 산240-5 둘리뮤지엄,37.6522882,127.027614
서울특별시 도봉구 도봉산길 86 도봉분소,"서울특별시 도봉구 도봉산길 86, 북한산생태탐방원 (도봉동)",37.6876485,127.0348504
"서울특별시 도봉구 노해로65길 4, 창동EMART (창동)",서울특별시 도봉구 창동 135번지 26호 창동EMART,37.6435399,127.0425316
서울특별시 도봉구 노해로66길 60,서울특별시 도봉구 창동 369 창일중학교,37.6486618,127.0469705
"서울특별시 도봉구 삼양로 610, 정안빌딩 (쌍문동)",서울특별시 도봉구 쌍문동 508번지 1호 정안빌딩,37.6574583,127.014022
"서울특별시 도봉구 노해로49길 69, 정의학교 (쌍문동)",서울특별시 도봉구 쌍문동 150번지 1호 정의학교,37.652972,127.031808
"서울특별시 도봉구 도봉산길 18, 2층 (도봉동)",서울특별시 도봉구 도봉동 282-344,37.6875403,127.0436706
"서울특별시 도봉구 도봉산길 18, 2층 (도봉동)",서울특별시 도봉구 도봉동 282-344,37.6875403,127.0436706
서울특별시 도봉구 도봉로169가길 52,서울특별시 도봉구 도봉로169가길 52,37.6821179,127.0435909
서울특별시 도봉구 우이천로 432,"서울특별시 도봉구 쌍문동 468 효문중,고등학교",37.6526614,127.0183261
"서울특별시 도봉구 덕릉로63길 76-10, 초안산배드민턴장 (창동)",서울특별시 도봉구 창동 410-5 초안산배드민턴장,37.6446161,127.0408798
서울특별시 구로구 남부순환로95길 54 (개봉동) 삼환아파트,서울특별시 구로구 개봉동 470 삼환아파트,37.494777,126.854458
"서울특별시 양천구 신정이펜1로 51 (신정동, 신정이펜하우스4단지)",서울특별시 양천구 신정동 1317번지 신정이펜하우스4단지,37.5107694,126.8298696
"서울특별시 양천구 신정로 290 (신정동, 신트리3단지아파트)",서울특별시 양천구 신정동 1276번지 신트리3단지아파트,37.5119164,126.8529695
"서울특별시 양천구 남부순환로70길 16-3, 신월7동주민센터 (신월동)",서울특별시 양천구 신월동 962번지 10호 신월7동주민센터,37.5218092,126.8345783
"서울특별시 금천구 독산로54길 188, 금천구민문화체육센터 (독산동)",서울특별시 금천구 독산동 371번지 2호 금천구민문화체육센터,37.4703434,126.9069037
"서울특별시 금천구 독산로54길 188, 금천구민문화체육센터 (독산동)",서울특별시 금천구 독산동 371번지 2호 금천구민문화체육센터,37.4703434,126.9069037
"서울특별시 금천구 독산로54길 188, 금천구민문화체육센터 (독산동)",서울특별시 금천구 독산동 371번지 2호 금천구민문화체육센터,37.4703434,126.9069037
"서울특별시 금천구 독산로76길 20, 독산4 치안센터 (독산동)",서울특별시 금천구 독산동 191번지 2호 독산4 치안센터,37.4693247,126.9035289
"서울특별시 금천구 범안로17길 12, 독산현대아파트 (독산동, 독산현대아파트)",서울특별시 금천구 독산동 293번지 10호 독산현대아파트,37.4678863,126.8956417
"서울특별시 금천구 금하로 668, 금빛공원 (시흥동)",서울특별시 금천구 시흥동 893번지 금빛공원,37.453143,126.9041291
"서울특별시 금천구 시흥대로73길 70, 금천구청종합청사 (시흥동)",서울특별시 금천구 시흥동 1020번지 금천구청종합청사,37.4568182,126.8954093
서울특별시 금천구 독산로82길 18 한영유통 내부,서울특별시 금천구 독산동 181-83 한영유통 내부,37.4715783,126.9047789
서울특별시 금천구 금하로30길 54 (시흥동),서울특별시 금천구 시흥동 산 84번지 7호,37.4488524,126.9162275
"서울특별시 은평구 진관2로 지하 15-25, 3호선 구파발역사무소 (진관동)",서울특별시 은평구 진관동 67번지 26호 3호선 구파발역사무소,37.6381579,126.9192897
서울특별시 은평구 진흥로 205,서울특별시 은평구 진흥로 205,37.6094594,126.9320125
서울특별시 은평구 가좌로 195,서울특별시 은평구 응암동 749-13 응암보건지소,37.5880464,126.9195084
"서울특별시 은평구 갈현로7길 49, 서울서북병원 (역촌동)",서울특별시 은평구 역촌동 산 31번지 1호 서울서북병원,37.6043238,126.9037195
서울특별시 은평구 은평로21길 52 (녹번동),서울특별시 은평구 녹번동 86,37.6036542,126.9291033
"서울특별시 양천구 목동서로 31, 월촌중학교 (목동)",서울특별시 양천구 목동 909번지 월촌중학교,37.5374557,126.8830216
서울특별시 용산구 녹사평대로60길 39,서울특별시 용산구 용산동2가 5-1488 용암초등학교,37.5448845,126.9891959
서울특별시 용산구 서빙고로 17 (한강로3가),서울특별시 용산구 한강로3가 63-70,37.5259057,126.967659
서울특별시 용산구 이촌로71길 24,"서울특별시 용산구 이촌동 301-82 이촌제1동주민센터, 용산청소년수련관",37.5212838,126.9732391
"서울특별시 은평구 통일로 610 (녹번동, 힐스테이트 녹번)",서울특별시 은평구 녹번동 21-269 힐스테이트 녹번,37.6019502,126.9359357
"서울특별시 은평구 백련산로 37 (응암동, 힐스테이트백련산4차아파트)",서울특별시 은평구 응암동 764 힐스테이트백련산4차아파트,37.5901764,126.9215946
"서울특별시 은평구 진관3로 38, 진관지구대 (진관동)",서울특별시 은평구 진관동 68번지 1호 진관지구대,37.6385045,126.9193088
서울특별시 은평구 연서로 117 (구산동),서울특별시 은평구 구산동 8-3,37.610172,126.9153169
"서울특별시 은평구 진관2로 57-57, 은평메디텍고등학교 (진관동)",서울특별시 은평구 진관동 86번지 은평메디텍고등학교,37.635402,126.9292395
"서울특별시 양천구 목동중앙로 9 (목동, 대원칸타빌3단지아파트)",서울특별시 양천구 목동 944번지 대원칸타빌3단지아파트,37.530979,126.8671031
"서울특별시 양천구 목동중앙로 11 (목동, 대원칸타빌2단지아파트)",서울특별시 양천구 목동 941번지 대원칸타빌2단지아파트,37.5321755,126.8668364
"서울특별시 양천구 목동중앙로 11 (목동, 대원칸타빌2단지아파트)",서울특별시 양천구 목동 941번지 대원칸타빌2단지아파트,37.5321755,126.8668364
"서울특별시 양천구 목동중앙로 11 (목동, 대원칸타빌2단지아파트)",서울특별시 양천구 목동 941번지 대원칸타빌2단지아파트,37.5321755,126.8668364
"서울특별시 양천구 목동중앙로 11 (목동, 대원칸타빌2단지아파트)",서울특별시 양천구 목동 941번지 대원칸타빌2단지아파트,37.5321755,126.8668364
서울특별시 용산구 청파로93길 27 2층 청파동헬스장,서울특별시 용산구 서계동 227-1 청파도서관 2층 청파동헬스장,37.553952,126.9675805
서울특별시 서초구 태봉로2길 5 관리사무소,서울특별시 서초구 우면동 730 서초네이처힐5단지 관리사무소,37.4625186,127.0248295
서울특별시 은평구 수색로14길 5-3 (수색동),서울특별시 은평구 수색로14길 5-3 (수색동),37.58191,126.8966376
"서울특별시 은평구 은평로 171, 응암지구대 (응암동)",서울특별시 은평구 응암동 84번지 8호 응암지구대,37.602146,126.9263273
서울특별시 서초구 남부순환로 2558 (서초동),서울특별시 서초구 서초동 1376-2 외교센타,37.4833841,127.0306661
서울특별시 용산구 청파로47길 100 순헌관 보건의료센터,서울특별시 용산구 청파동2가 53-12 숙명여자대학교 순헌관 보건의료센터,37.5461503,126.9649352
서울특별시 용산구 청파로83길 26,서울특별시 용산구 서계동 33-49 청파노인복지센터,37.5520038,126.9677149
서울특별시 용산구 한강대로 255,서울특별시 용산구 갈월동 101-5 청소년미디어센터,37.5409985,126.9726125
서울특별시 용산구 청파로 74 뒤 용산전자상가 공영주차장 통합사무실,서울특별시 용산구 한강로3가 16-9 전자랜드 뒤 용산전자상가 공영주차장 통합사무실,37.5328143,126.9597291
서울특별시 용산구 녹사평대로 150 보건소 지하 2층,서울특별시 용산구 이태원동 34-87 용산구종합행정타운 보건소 지하 2층,37.5325699,126.9901764
서울특별시 용산구 독서당로 18 한남유수지 공영주차장,서울특별시 용산구 한남동 522-44 한남유수지 공영주차장,37.5298179,127.007392
서울특별시 용산구 청파로20길 83 건너편 용산전자상가 제1 공영주차장,서울특별시 용산구 한강로3가 40-969 터미널전자쇼핑센타 건너편 용산전자상가 제1 공영주차장,37.5319202,126.9624439
서울특별시 용산구 새창로44길 10 건너편 용산전자상가 제4 공영주차장,서울특별시 용산구 신계동 40-1 우경빌딩 건너편 용산전자상가 제4 공영주차장,37.5340955,126.9615714
서울특별시 용산구 청파로 100 건너편 용산전자상가 제2 공영주차장,서울특별시 용산구 한강로3가 2-8 나진상가 건너편 용산전자상가 제2 공영주차장,37.5328095,126.9623836
서울특별시 용산구 청파로 373 (재)국립극단,서울특별시 용산구 서계동 1 (재)국립극단,37.5529887,126.9679695
서울특별시 용산구 효창원로93길 51,서울특별시 용산구 효창동 3-306 구립용산노인전문요양원,37.5471482,126.9615776
서울특별시 용산구 효창원로69길 42-3,서울특별시 용산구 효창동 5-134 한벗 장애인 조기보호시,37.5428578,126.9601928
서울특별시 용산구 새창로 170-4 용산구견인차량보관소,서울특별시 용산구 한강로3가 23-1 용산구견인차량보관소,37.5322193,126.9626616
서울특별시 용산구 백범로47길 24 101호,서울특별시 용산구 효창동 5-231 101호,37.5409625,126.9595081
서울특별시 용산구 효창원로 146-12 구립효창데이케어센터,"서울특별시 용산구 효창동 5-65 효창종합사회복지관,효창제2경로당 구립효창데이케어센터",37.541179,126.9630225
서울특별시 용산구 이촌로71길 24,서울특별시 용산구 이촌로71길 24 용산구 청소년수련관,37.5214167,126.9732
서울특별시 용산구 청파로 373 (재)국립극단,서울특별시 용산구 청파로 373 (재)국립극단 경영관리팀,37.5527605,126.9681333
서울특별시 용산구 남산공원길 105 N서울타워,서울특별시 용산구 용산동2가 산 1-3 YTN서울타워 N서울타워,37.5489462,126.989413
서울특별시 용산구 이태원로 224-19 한남동 공영주차장,서울특별시 용산구 한남동 685-46 한남동공영주차장 한남동 공영주차장,37.5349321,127.0002095
서울특별시 용산구 이촌로71길 24,서울특별시 용산구 이촌로71길 24 용산구 청소년수련관,37.5214167,126.9732
서울특별시 용산구 한강대로 331 용산구립 장애인 보호작업장,서울특별시 용산구 갈월동 71-20 용산구립 장애인 보호작업장,37.5479081,126.9715039
서울특별시 용산구 이태원로 294 블루스퀘어 (한남동),서울특별시 용산구 한남동 727-56 블루스퀘어 블루스퀘어,37.5407077,127.0026619
서울특별시 용산구 백범로 329 꿈나무종합타운 (원효로1가),서울특별시 용산구 원효로1가 25 꿈나무종합타운,37.5386683,126.9655126
서울특별시 용산구 두텁바위로 160 용산도서관 (후암동),서울특별시 용산구 후암동 30-90 용산도서관 용산도서관,37.5520328,126.9800648
서울특별시 용산구 이태원로 294 블루스퀘어 (한남동),서울특별시 용산구 한남동 727-56 블루스퀘어 블루스퀘어,37.5407077,127.0026619
서울특별시 용산구 이태원로 29,서울특별시 용산구 용산동1가 8 전쟁기념관,37.5363313,126.9771285
서울특별시 용산구 이태원로 29,서울특별시 용산구 용산동1가 8 전쟁기념관,37.5363313,126.9771285
서울특별시 용산구 청파로 74 용산전자상가 제3 공영주차장,서울특별시 용산구 한강로3가 16-9 전자랜드 용산전자상가 제3 공영주차장,37.5328143,126.9597291
서울특별시 용산구 한강대로43길 13,서울특별시 용산구 한강로2가 2-11 한강로대우아이빌,37.5315641,126.9690824
서울특별시 용산구 임정로 26,서울특별시 용산구 효창동 255 백범기념관,37.5451858,126.9602306
서울특별시 용산구 임정로 26,서울특별시 용산구 임정로 26 백범기념관,37.5442565,126.9592468
"서울특별시 은평구 서오릉로20길 19, 선정중학교, 선정고등학교 (갈현동)",서울특별시 은평구 서오릉로20길 19,37.6188615,126.9084267
"서울특별시 은평구 통일로83길 24-9, 천주교 갈현동성당 (갈현동)",서울특별시 은평구 갈현동 428번지 3호 천주교 갈현동성당,37.6214739,126.9170348
서울특별시 용산구 두텁바위로 25,서울특별시 용산구 갈월동 51-19 남영동 주민센터,37.5457928,126.9748425
서울특별시 용산구 소월로20길 43 해방교회 (용산동2가),서울특별시 용산구 용산동2가 31 해방교회,37.5443872,126.9852072
서울특별시 용산구 효창원로69가길 2 (효창동),서울특별시 용산구 효창동 5번지 32호,37.5424939,126.9643144
서울특별시 용산구 청파로 52 한국마사회 용산지사 (한강로3가),서울특별시 용산구 한강로3가 16-48 한국마사회 용산지사,37.5322596,126.9572014
"서울특별시 용산구 양녕로 445, 노들텃밭 지원센터 (이촌동)",서울특별시 용산구 이촌동 302번지 146호 노들텃밭 지원센터,37.5195276,126.9601681
"서울특별시 용산구 양녕로 445, 노들텃밭 지원센터 (이촌동)",서울특별시 용산구 이촌동 302번지 146호 노들텃밭 지원센터,37.5195276,126.9601681
서울특별시 용산구 한강대로71길 37 민주화운동기념사업회 (갈월동),서울특별시 용산구 갈월동 98-8 민주인권기념관 예정지 민주화운동기념사업회,37.54066,126.9717581
서울특별시 용산구 청파로 52 한국마사회 용산지사 (한강로3가),서울특별시 용산구 한강로3가 16-48 한국마사회 용산지사,37.5322596,126.9572014
"서울특별시 용산구 원효로90길 11 (원효로1가, 용산더프라임)",서울특별시 용산구 원효로1가 41번지 용산더프라임,37.5402229,126.9701061
"서울특별시 용산구 서빙고로 245, 용산구장애인커뮤니센터 (서빙고동)",서울특별시 용산구 서빙고동 199번지 3호 용산구장애인커뮤니센터,37.5204185,126.9918267
"서울특별시 용산구 서빙고로 245, 용산구장애인커뮤니센터 (서빙고동)",서울특별시 용산구 서빙고동 199번지 3호 용산구장애인커뮤니센터,37.5204185,126.9918267
"서울특별시 용산구 서빙고로 245, 용산구장애인커뮤니센터 (서빙고동)",서울특별시 용산구 서빙고동 199번지 3호 용산구장애인커뮤니센터,37.5204185,126.9918267
"서울특별시 용산구 양녕로 445, 노들텃밭 지원센터 (이촌동)","서울특별시 용산구 양녕로 445, 노들텃밭 지원센터 (이촌동)",37.5176704,126.958052
"서울특별시 용산구 양녕로 445, 노들텃밭 지원센터 (이촌동)",서울특별시 용산구 이촌동 302번지 146호 노들텃밭 지원센터,37.5195276,126.9601681
"서울특별시 용산구 원효로90길 11 (원효로1가, 용산더프라임)",서울특별시 용산구 원효로1가 41번지 용산더프라임,37.5402229,126.9701061
"서울특별시 용산구 서빙고로24길 15, 용산세무서 (한강로3가)",서울특별시 용산구 한강로3가 65번지 342호 용산세무서,37.5236733,126.9651496
"서울특별시 용산구 원효로90길 11 (원효로1가, 용산더프라임)",서울특별시 용산구 원효로1가 41번지 용산더프라임,37.5402229,126.9701061
서울특별시 용산구 서빙고로 17 (한강로3가),서울특별시 용산구 한강로3가 63-70,37.5259057,126.967659
"서울특별시 용산구 후암로4길 70, 영락보린원 (후암동)",서울특별시 용산구 후암동 370 영락보린원,37.5485065,126.9812864
서울특별시 용산구 후암로57길 9-12 (동자동),서울특별시 용산구 동자동 9-7,37.5529481,126.9746548
서울특별시 용산구 대사관로 59 순천향대학교 서울병원,서울특별시 용산구 한남동 657-58 순천향대학병원 순천향대학교 서울병원,37.5337076,127.0043223
서울특별시 용산구 백범로 350,서울특별시 용산구 백범로 350 용산문화센타,37.5372185,126.9676811
서울특별시 용산구 신흥로 90,"서울특별시 용산구 용산동2가 11-13 용산2가동 주민센터, 용산치안센터",37.5459553,126.9854884
서울특별시 용산구 소월로2나길 18 (후암동),서울특별시 용산구 후암동 435-2,37.5534035,126.9774822
"서울특별시 용산구 독서당로 103, 구립한남노인요양원 지하1층 (한남동)",서울특별시 용산구 한남동 820 구립한남노인요양원,37.5356062,127.0107659
서울특별시 용산구 서빙고로51길 14,서울특별시 용산구 서빙고동 235-1 서빙고초등학교,37.5213595,126.9919318
서울특별시 용산구 한강대로14길 9,서울특별시 용산구 한강로3가 65-5 한강초등학교,37.5252176,126.9650937
서울특별시 용산구 한강대로57길 33,서울특별시 용산구 한강로2가 1 용산초등학교,37.5351722,126.9721925
서울특별시 용산구 녹사평대로40길 19,서울특별시 용산구 이태원동 406 이태원초등학교,37.5359044,126.9879976
서울특별시 용산구 신흥로3가길 66,서울특별시 용산구 신흥로3가길 66 보성여자고등학교,37.5431165,126.9842563
서울특별시 용산구 녹사평대로40길 19 교육문화관 수영장,서울특별시 용산구 이태원동 406 이태원초등학교 교육문화관 수영장,37.5359044,126.9879976
서울특별시 용산구 원효로97길 33-4,서울특별시 용산구 청파동3가 131-2 선린중학교,37.5424862,126.9665817
서울특별시 용산구 이태원로 285 서울용산 국제학교,서울특별시 용산구 한남동 산10-212 서울용산 국제학교,37.5418548,127.0010238
서울특별시 용산구 이태원로 285 서울용산 국제학교,서울특별시 용산구 한남동 산10-212 서울용산 국제학교,37.5418548,127.0010238
서울특별시 용산구 이태원로 285 서울용산 국제학교,서울특별시 용산구 한남동 산10-212 서울용산 국제학교,37.5418548,127.0010238
서울특별시 용산구 이촌로 255 신용산초등학교 (이촌동),서울특별시 용산구 이촌동 301-75 신용산초등학교 신용산초등학교,37.5200271,126.9759002
서울특별시 용산구 원효로97길 33-4,서울특별시 용산구 원효로97길 33-4 선린인턴넷고등학교,37.5428137,126.9670558
서울특별시 용산구 원효로97길 33-4,서울특별시 용산구 원효로97길 33-4 선린인턴넷고등학교,37.5428137,126.9670558
서울특별시 서초구 신반포로 지하 188 (3호선) 역무실 맞은편 (반포동),서울특별시 서초구 반포동 19-11 강남고속터미널역 (3호선) 역무실 맞은편,37.5048477,127.0048951
서울특별시 용산구 서빙고로 137,서울특별시 용산구 용산동6가 168-6 국립중앙박물관,37.5230377,126.9822439
서울특별시 용산구 서빙고로 137,서울특별시 용산구 용산동6가 168-6 국립중앙박물관,37.5230377,126.9822439
서울특별시 용산구 서빙고로 139,서울특별시 용산구 용산동6가 168-6 한글박물관,37.5230377,126.9822439
서울특별시 용산구 이태원로 29 어린이 박물관,서울특별시 용산구 이태원로 29 어린이 박물관,37.5373958,126.9785121
서울특별시 용산구 한강대로 405 롯데아울렛서울역점,서울특별시 용산구 동자동 43-205 서울역(철도역) 롯데아울렛서울역점,37.5523931,126.9710727
서울특별시 용산구 독서당로6길 12-13 역사무실,서울특별시 용산구 한남동 399-7 한남역 역사무실,37.5297435,127.0099578
서울특별시 용산구 두텁바위로 140,서울특별시 용산구 후암동 30-138 후암초등학교,37.5510518,126.9821498
서울특별시 용산구 원효로64길 17-10,서울특별시 용산구 원효로2가 54-1 남정초등학교,37.5363639,126.9649888
서울특별시 용산구 한강대로 지하185,서울특별시 용산구 한강로1가 228-1 6호선 삼각지역,37.5346624,126.9732238
서울특별시 용산구 이태원로 지하177,서울특별시 용산구 이태원동 119-23 6호선 이태원역,37.5345467,126.9946627
서울특별시 용산구 한강대로 지하306,서울특별시 용산구 갈월동 16-7 숙대입구역,37.5455787,126.9719443
서울특별시 용산구 한강대로 지하392,서울특별시 용산구 동자동 14-151 4호선 서울역,37.5531204,126.9728008
서울특별시 용산구 한강대로 지하180,서울특별시 용산구 한강로1가 228-1 4호선 삼각지역,37.5346624,126.9732238
서울특별시 용산구 서빙고로 지하83,서울특별시 용산구 용산동5가 17-112 4호선 이촌역,37.5219476,126.9753798
서울특별시 용산구 신흥로3가길 66,서울특별시 용산구 용산동2가 1-1123 보성여자중고등학교,37.5427692,126.9845023
서울특별시 용산구 청파로 263 신광여자고등학교,서울특별시 용산구 청파동3가 100 학교법인신광학원 신광여자고등학교,37.5430185,126.9699795
서울특별시 용산구 서빙고로 24,서울특별시 용산구 한강로3가 65-209 용산공업고등학교,37.5246082,126.9669422
서울특별시 용산구 백범로 329 용산경찰서 방범 순찰대,서울특별시 용산구 원효로1가 25 용산경찰서 방범 순찰대,37.5386683,126.9655126
서울특별시 용산구 서빙고로 67 한강로파출소,서울특별시 용산구 용산동5가 24 파크타워아파트 한강로파출소,37.5242783,126.9706853
서울특별시 용산구 양녕로 496 이촌한강치안센터 (이촌동),서울특별시 용산구 이촌동 361-1 노들견우카페 이촌한강치안센터,37.5205546,126.9624877
"서울특별시 용산구 이촌로71길 24, 이촌제1동주민센터, 용산청소년수련관 (이촌동)","서울특별시 용산구 이촌동 301-82 이촌제1동주민센터, 용산청소년수련관",37.5212838,126.9732391
서울특별시 용산구 효창원로93길 51,서울특별시 용산구 효창동 3-306 구립용산노인전문요양원,37.5471482,126.9615776
서울특별시 용산구 후암로4길 70,서울특별시 용산구 후암동 370 영락보린원,37.5485065,126.9812864
서울특별시 용산구 대사관로34길 53,서울특별시 용산구 대사관로34길 53,37.531097,127.006355
서울특별시 용산구 청파로 263,서울특별시 용산구 청파동3가 100 학교법인신광학원,37.5430185,126.9699795
서울특별시 용산구 한강대로 지하112,서울특별시 용산구 한강로2가 181 4호선 신용산역,37.5296207,126.9682189
서울특별시 용산구 이촌로71길 42,서울특별시 용산구 이촌동 17-69 중앙선 이촌역,37.5222293,126.9735957
서울특별시 용산구 효창원로13길 38,서울특별시 용산구 산천동 6-73 원효초등학교,37.5361963,126.9518395
서울특별시 용산구 한강대로77길 25,서울특별시 용산구 갈월동 96-1 남영역,37.5416321,126.9712441
서울특별시 용산구 서빙고로 238,서울특별시 용산구 서빙고동 241-98 서빙고역,37.5199375,126.9900376
서울특별시 용산구 서빙고로 139,서울특별시 용산구 용산동6가 168-6 한글박물관,37.5230377,126.9822439
서울특별시 용산구 서빙고로 137,서울특별시 용산구 서빙고로 137 국립중앙박물관,37.5240867,126.9803881
서울특별시 용산구 청파로47길 100 숙명여자대학교 기숙사 명재관,서울특별시 용산구 청파동2가 53-12 숙명여자대학교 숙명여자대학교 기숙사 명재관,37.5461503,126.9649352
서울특별시 용산구 백범로 지하287,서울특별시 용산구 효창동 80 6호선 효창공원역,37.5396242,126.9609907
서울특별시 용산구 대사관로 59 순천향대학교 서울병원,서울특별시 용산구 한남동 657-58 순천향대학병원 순천향대학교 서울병원,37.5337076,127.0043223
서울특별시 용산구 대사관로 59 순천향대학교 서울병원,서울특별시 용산구 한남동 657-58 순천향대학병원 순천향대학교 서울병원,37.5337076,127.0043223
서울특별시 용산구 대사관로 59 순천향대학교 서울병원,서울특별시 용산구 한남동 657-58 순천향대학병원 순천향대학교 서울병원,37.5337076,127.0043223
서울특별시 용산구 대사관로 59 순천향대학교 서울병원,서울특별시 용산구 한남동 657-58 순천향대학병원 순천향대학교 서울병원,37.5337076,127.0043223
서울특별시 용산구 대사관로 59 순천향대학교 서울병원,서울특별시 용산구 한남동 657-58 순천향대학병원 순천향대학교 서울병원,37.5337076,127.0043223
서울특별시 용산구 두텁바위로1나길 19 서울 삼광초등학교,서울특별시 용산구 후암동 190-2 삼광초등학교 서울 삼광초등학교,37.547249,126.9766932
서울특별시 용산구 원효로71길 40 경의중앙선 효창공원앞역,서울특별시 용산구 용문동 5-2 경의중앙선 효창공원앞역,37.5383142,126.9629452
